nord,east,alt,speed,vf,vl,vu,yaw,pitch,roll,af,al,au,wf,wl,wu,numsats,satellitesInView,profile,fixQuality,HDOP,timestamp,grabMsec,episode
59.9588297,30.3451776,8.026,4.113,0.0,0.0,0.0,-3.4785860615526145,0.0,0.0,0.0,0.0,0.0,0.0,0.0,0.0,21,43,0,4,0.63,2024-07-19T11: 51: 58.000+03: 00,39078,new.004.001.
59.9588263,30.3451752,8.026,4.063,0.0,0.0,0.0,-3.4741476892647927,0.0,0.0,0.0,0.0,0.0,0.0,0.0,0.0,21,43,0,4,0.63,2024-07-19T11: 51: 58.100+03: 00,39179,new.004.001.
59.9588228,30.3451728,8.021,4.091,0.0,0.0,0.0,-3.474713175942439,0.0,0.0,0.0,0.0,0.0,0.0,0.0,0.0,21,43,0,4,0.63,2024-07-19T11: 51: 58.200+03: 00,39271,new.004.001.
59.9588194,30.3451704,8.021,4.08,0.0,0.0,0.0,-3.476086750063758,0.0,0.0,0.0,0.0,0.0,0.0,0.0,0.0,21,43,0,4,0.63,2024-07-19T11: 51: 58.300+03: 00,39374,new.004.001.
59.9588159,30.345168,8.016,4.111,0.0,0.0,0.0,-3.475297861241857,0.0,0.0,0.0,0.0,0.0,0.0,0.0,0.0,21,43,0,4,0.63,2024-07-19T11: 51: 58.400+03: 00,39469,new.004.001.
59.9588124,30.3451656,8.017,4.128,0.0,0.0,0.0,-3.4679552610787168,0.0,0.0,0.0,0.0,0.0,0.0,0.0,0.0,21,43,0,4,0.63,2024-07-19T11: 51: 58.500+03: 00,39571,new.004.001.
59.9588089,30.3451632,8.016,4.049,0.0,0.0,0.0,-3.4720602754794077,0.0,0.0,0.0,0.0,0.0,0.0,0.0,0.0,21,43,0,4,0.63,2024-07-19T11: 51: 58.600+03: 00,39671,new.004.001.
59.9588054,30.3451607,8.016,4.155,0.0,0.0,0.0,-3.484628391423019,0.0,0.0,0.0,0.0,0.0,0.0,0.0,0.0,21,43,0,4,0.63,2024-07-19T11: 51: 58.700+03: 00,39770,new.004.001.
59.9588019,30.3451583,8.018,4.113,0.0,0.0,0.0,-3.47502908053705,0.0,0.0,0.0,0.0,0.0,0.0,0.0,0.0,21,43,0,4,0.63,2024-07-19T11: 51: 58.800+03: 00,39870,new.004.001.
59.9587984,30.3451558,8.012,4.12,0.0,0.0,0.0,-3.4735507866606103,0.0,0.0,0.0,0.0,0.0,0.0,0.0,0.0,21,43,0,4,0.65,2024-07-19T11: 51: 58.900+03: 00,39971,new.004.001.
59.9587949,30.3451534,8.012,4.129,0.0,0.0,0.0,-3.477587733220474,0.0,0.0,0.0,0.0,0.0,0.0,0.0,0.0,21,43,0,4,0.65,2024-07-19T11: 51: 59.000+03: 00,40078,new.004.001.
59.9587915,30.3451509,8.008,4.115,0.0,0.0,0.0,-3.4839040797834406,0.0,0.0,0.0,0.0,0.0,0.0,0.0,0.0,21,43,0,4,0.65,2024-07-19T11: 51: 59.100+03: 00,40172,new.004.001.
59.9587879,30.3451485,8.01,4.144,0.0,0.0,0.0,-3.4687755658271535,0.0,0.0,0.0,0.0,0.0,0.0,0.0,0.0,21,43,0,4,0.65,2024-07-19T11: 51: 59.200+03: 00,40271,new.004.001.
59.9587844,30.345146,8.007,4.143,0.0,0.0,0.0,-3.488499531703942,0.0,0.0,0.0,0.0,0.0,0.0,0.0,0.0,21,43,0,4,0.65,2024-07-19T11: 51: 59.300+03: 00,40370,new.004.001.
59.9587809,30.3451436,7.996,4.149,0.0,0.0,0.0,-3.4764305799264013,0.0,0.0,0.0,0.0,0.0,0.0,0.0,0.0,21,43,0,4,0.65,2024-07-19T11: 51: 59.400+03: 00,40477,new.004.001.
59.9587774,30.3451411,7.996,4.13,0.0,0.0,0.0,-3.4840314888188364,0.0,0.0,0.0,0.0,0.0,0.0,0.0,0.0,21,43,0,4,0.65,2024-07-19T11: 51: 59.500+03: 00,40571,new.004.001.
59.9587739,30.3451386,7.994,4.172,0.0,0.0,0.0,-3.480720599227803,0.0,0.0,0.0,0.0,0.0,0.0,0.0,0.0,21,43,0,4,0.65,2024-07-19T11: 51: 59.600+03: 00,40669,new.004.001.
59.9587704,30.3451361,7.995,4.136,0.0,0.0,0.0,-3.4814204762578527,0.0,0.0,0.0,0.0,0.0,0.0,0.0,0.0,20,43,0,4,0.65,2024-07-19T11: 51: 59.700+03: 00,40769,new.004.001.
59.9587669,30.3451337,7.991,4.159,0.0,0.0,0.0,-3.477997885594692,0.0,0.0,0.0,0.0,0.0,0.0,0.0,0.0,20,43,0,4,0.65,2024-07-19T11: 51: 59.800+03: 00,40870,new.004.001.
59.9587633,30.3451312,7.987,4.165,0.0,0.0,0.0,-3.4812564153081653,0.0,0.0,0.0,0.0,0.0,0.0,0.0,0.0,20,43,0,4,0.65,2024-07-19T11: 51: 59.900+03: 00,40970,new.004.001.
59.9587598,30.3451287,7.987,4.164,0.0,0.0,0.0,-3.4803104468535846,0.0,0.0,0.0,0.0,0.0,0.0,0.0,0.0,20,43,0,4,0.66,2024-07-19T11: 52: 00.000+03: 00,41077,new.004.001.
59.9587563,30.3451264,7.983,4.133,0.0,0.0,0.0,-3.4677754921657615,0.0,0.0,0.0,0.0,0.0,0.0,0.0,0.0,20,43,0,4,0.66,2024-07-19T11: 52: 00.100+03: 00,41176,new.004.001.
59.9587528,30.3451237,7.978,4.185,0.0,0.0,0.0,-3.4938681644830765,0.0,0.0,0.0,0.0,0.0,0.0,0.0,0.0,19,43,0,4,0.66,2024-07-19T11: 52: 00.200+03: 00,41267,new.004.001.
59.9587493,30.3451214,7.981,4.15,0.0,0.0,0.0,-3.4715663473010934,0.0,0.0,0.0,0.0,0.0,0.0,0.0,0.0,20,43,0,4,0.68,2024-07-19T11: 52: 00.300+03: 00,41370,new.004.001.
59.9587456,30.3451188,7.969,4.247,0.0,0.0,0.0,-3.482460692492042,0.0,0.0,0.0,0.0,0.0,0.0,0.0,0.0,20,43,0,4,0.66,2024-07-19T11: 52: 00.400+03: 00,41471,new.004.001.
59.958742,30.3451163,7.97,4.249,0.0,0.0,0.0,-3.476790117752312,0.0,0.0,0.0,0.0,0.0,0.0,0.0,0.0,20,43,0,4,0.66,2024-07-19T11: 52: 00.500+03: 00,41569,new.004.001.
59.9587384,30.3451137,7.965,4.268,0.0,0.0,0.0,-3.478879276866949,0.0,0.0,0.0,0.0,0.0,0.0,0.0,0.0,21,43,0,4,0.66,2024-07-19T11: 52: 00.600+03: 00,41669,new.004.001.
59.9587348,30.3451112,7.967,4.321,0.0,0.0,0.0,-3.481376843026553,0.0,0.0,0.0,0.0,0.0,0.0,0.0,0.0,21,43,0,4,0.66,2024-07-19T11: 52: 00.700+03: 00,41770,new.004.001.
59.9587311,30.3451086,7.963,4.32,0.0,0.0,0.0,-3.4796908549691263,0.0,0.0,0.0,0.0,0.0,0.0,0.0,0.0,21,43,0,4,0.66,2024-07-19T11: 52: 00.800+03: 00,41869,new.004.001.
59.9587274,30.345106,7.961,4.376,0.0,0.0,0.0,-3.477467305502086,0.0,0.0,0.0,0.0,0.0,0.0,0.0,0.0,21,43,0,4,0.66,2024-07-19T11: 52: 00.900+03: 00,41969,new.004.001.
59.9587237,30.3451034,7.96,4.374,0.0,0.0,0.0,-3.4752926252541005,0.0,0.0,0.0,0.0,0.0,0.0,0.0,0.0,21,43,0,4,0.66,2024-07-19T11: 52: 01.000+03: 00,42074,new.004.001.
59.9587198,30.3451008,7.954,4.512,0.0,0.0,0.0,-3.4786366761009226,0.0,0.0,0.0,0.0,0.0,0.0,0.0,0.0,20,43,0,4,0.66,2024-07-19T11: 52: 01.100+03: 00,42167,new.004.001.
59.958716,30.3450981,7.948,4.471,0.0,0.0,0.0,-3.477476032148346,0.0,0.0,0.0,0.0,0.0,0.0,0.0,0.0,20,43,0,4,0.67,2024-07-19T11: 52: 01.200+03: 00,42270,new.004.001.
59.9587121,30.3450955,7.951,4.606,0.0,0.0,0.0,-3.469206662152397,0.0,0.0,0.0,0.0,0.0,0.0,0.0,0.0,20,43,0,4,0.67,2024-07-19T11: 52: 01.300+03: 00,42372,new.004.001.
59.9587082,30.3450929,7.957,4.581,0.0,0.0,0.0,-3.461239234117043,0.0,0.0,0.0,0.0,0.0,0.0,0.0,0.0,20,43,0,4,0.67,2024-07-19T11: 52: 01.400+03: 00,42475,new.004.001.
59.9587042,30.3450902,7.956,4.642,0.0,0.0,0.0,-3.4631486243187246,0.0,0.0,0.0,0.0,0.0,0.0,0.0,0.0,20,43,0,4,0.67,2024-07-19T11: 52: 01.500+03: 00,42569,new.004.001.
59.9587003,30.3450874,7.951,4.614,0.0,0.0,0.0,-3.483638789737138,0.0,0.0,0.0,0.0,0.0,0.0,0.0,0.0,20,43,0,4,0.67,2024-07-19T11: 52: 01.600+03: 00,42669,new.004.001.
59.9586964,30.3450845,7.96,4.689,0.0,0.0,0.0,-3.4896950822415578,0.0,0.0,0.0,0.0,0.0,0.0,0.0,0.0,19,43,0,4,0.67,2024-07-19T11: 52: 01.700+03: 00,42768,new.004.001.
59.9586923,30.3450817,7.953,4.765,0.0,0.0,0.0,-3.4772578659918465,0.0,0.0,0.0,0.0,0.0,0.0,0.0,0.0,18,43,0,4,0.72,2024-07-19T11: 52: 01.800+03: 00,42868,new.004.001.
59.9586882,30.3450788,7.953,4.787,0.0,0.0,0.0,-3.480814847007411,0.0,0.0,0.0,0.0,0.0,0.0,0.0,0.0,18,43,0,4,0.72,2024-07-19T11: 52: 01.900+03: 00,42968,new.004.001.
59.9586841,30.3450758,7.951,4.843,0.0,0.0,0.0,-3.4920949099630505,0.0,0.0,0.0,0.0,0.0,0.0,0.0,0.0,17,43,0,4,0.72,2024-07-19T11: 52: 02.000+03: 00,43075,new.004.001.
59.95868,30.3450729,7.942,4.865,0.0,0.0,0.0,-3.4805635195951243,0.0,0.0,0.0,0.0,0.0,0.0,0.0,0.0,17,43,0,4,0.82,2024-07-19T11: 52: 02.100+03: 00,43171,new.004.001.
59.9586757,30.3450699,7.943,4.998,0.0,0.0,0.0,-3.4730952557258403,0.0,0.0,0.0,0.0,0.0,0.0,0.0,0.0,17,43,0,4,0.82,2024-07-19T11: 52: 02.200+03: 00,43275,new.004.001.
59.9586714,30.3450669,7.934,4.999,0.0,0.0,0.0,-3.4861381012259938,0.0,0.0,0.0,0.0,0.0,0.0,0.0,0.0,18,43,0,4,0.86,2024-07-19T11: 52: 02.300+03: 00,43369,new.004.001.
59.9586671,30.3450639,7.933,5.05,0.0,0.0,0.0,-3.474688741332911,0.0,0.0,0.0,0.0,0.0,0.0,0.0,0.0,18,43,0,4,0.82,2024-07-19T11: 52: 02.400+03: 00,43468,new.004.001.
59.9586628,30.3450609,7.924,5.085,0.0,0.0,0.0,-3.4753711650704404,0.0,0.0,0.0,0.0,0.0,0.0,0.0,0.0,18,43,0,4,0.82,2024-07-19T11: 52: 02.500+03: 00,43568,new.004.001.
59.9586585,30.3450579,7.922,5.11,0.0,0.0,0.0,-3.4748702555751185,0.0,0.0,0.0,0.0,0.0,0.0,0.0,0.0,18,43,0,4,0.82,2024-07-19T11: 52: 02.600+03: 00,43667,new.004.001.
59.9586541,30.3450547,7.924,5.149,0.0,0.0,0.0,-3.4871311935703786,0.0,0.0,0.0,0.0,0.0,0.0,0.0,0.0,17,43,0,4,0.82,2024-07-19T11: 52: 02.700+03: 00,43768,new.004.001.
59.9586497,30.3450516,7.91,5.186,0.0,0.0,0.0,-3.483942477026985,0.0,0.0,0.0,0.0,0.0,0.0,0.0,0.0,17,43,0,4,0.82,2024-07-19T11: 52: 02.800+03: 00,43867,new.004.001.
59.9586453,30.3450485,7.911,5.177,0.0,0.0,0.0,-3.480043411478029,0.0,0.0,0.0,0.0,0.0,0.0,0.0,0.0,18,43,0,4,0.82,2024-07-19T11: 52: 02.900+03: 00,43965,new.004.001.
59.9586409,30.3450453,7.904,5.176,0.0,0.0,0.0,-3.4878450332344437,0.0,0.0,0.0,0.0,0.0,0.0,0.0,0.0,18,43,0,4,0.72,2024-07-19T11: 52: 03.000+03: 00,44074,new.004.001.
59.9586365,30.3450423,7.901,5.172,0.0,0.0,0.0,-3.4759331610895825,0.0,0.0,0.0,0.0,0.0,0.0,0.0,0.0,18,43,0,4,0.72,2024-07-19T11: 52: 03.100+03: 00,44170,new.004.001.
59.9586321,30.3450393,7.891,5.166,0.0,0.0,0.0,-3.4754008356677244,0.0,0.0,0.0,0.0,0.0,0.0,0.0,0.0,18,43,0,4,0.72,2024-07-19T11: 52: 03.200+03: 00,44268,new.004.001.
59.9586277,30.3450362,7.877,5.194,0.0,0.0,0.0,-3.481060938431942,0.0,0.0,0.0,0.0,0.0,0.0,0.0,0.0,18,43,0,4,0.72,2024-07-19T11: 52: 03.300+03: 00,44369,new.004.001.
59.9586233,30.3450329,7.86,5.219,0.0,0.0,0.0,-3.4919483023058833,0.0,0.0,0.0,0.0,0.0,0.0,0.0,0.0,18,43,0,4,0.72,2024-07-19T11: 52: 03.400+03: 00,44476,new.004.001.
59.9586189,30.3450299,7.856,5.197,0.0,0.0,0.0,-3.4768756388856596,0.0,0.0,0.0,0.0,0.0,0.0,0.0,0.0,18,43,0,4,0.72,2024-07-19T11: 52: 03.500+03: 00,44568,new.004.001.
59.9586145,30.3450269,7.848,5.175,0.0,0.0,0.0,-3.473091765067336,0.0,0.0,0.0,0.0,0.0,0.0,0.0,0.0,18,43,0,4,0.72,2024-07-19T11: 52: 03.600+03: 00,44668,new.004.001.
59.95861,30.3450236,7.841,5.275,0.0,0.0,0.0,-3.4862114050545774,0.0,0.0,0.0,0.0,0.0,0.0,0.0,0.0,18,43,0,4,0.72,2024-07-19T11: 52: 03.700+03: 00,44769,new.004.001.
59.9586056,30.3450206,7.835,5.197,0.0,0.0,0.0,-3.475842403968479,0.0,0.0,0.0,0.0,0.0,0.0,0.0,0.0,18,43,0,4,0.72,2024-07-19T11: 52: 03.800+03: 00,44866,new.004.001.
59.9586011,30.3450176,7.828,5.223,0.0,0.0,0.0,-3.472240044392363,0.0,0.0,0.0,0.0,0.0,0.0,0.0,0.0,18,43,0,4,0.72,2024-07-19T11: 52: 03.900+03: 00,44968,new.004.001.
59.9585967,30.3450145,7.825,5.245,0.0,0.0,0.0,-3.4728927975326087,0.0,0.0,0.0,0.0,0.0,0.0,0.0,0.0,16,43,0,4,0.72,2024-07-19T11: 52: 04.000+03: 00,45075,new.004.001.
59.9585922,30.3450114,7.82,5.25,0.0,0.0,0.0,-3.4771287116271985,0.0,0.0,0.0,0.0,0.0,0.0,0.0,0.0,16,43,0,4,0.96,2024-07-19T11: 52: 04.100+03: 00,45171,new.004.001.
59.9585878,30.3450082,7.812,5.275,0.0,0.0,0.0,-3.4811831114795817,0.0,0.0,0.0,0.0,0.0,0.0,0.0,0.0,15,43,0,4,0.96,2024-07-19T11: 52: 04.200+03: 00,45274,new.004.001.
59.9585834,30.3450052,7.812,5.202,0.0,0.0,0.0,-3.4688872668992814,0.0,0.0,0.0,0.0,0.0,0.0,0.0,0.0,16,43,0,4,0.99,2024-07-19T11: 52: 04.300+03: 00,45370,new.004.001.
59.9585789,30.3450022,7.804,5.22,0.0,0.0,0.0,-3.473288987272811,0.0,0.0,0.0,0.0,0.0,0.0,0.0,0.0,16,43,0,4,0.96,2024-07-19T11: 52: 04.400+03: 00,45467,new.004.001.
59.9585745,30.3449991,7.798,5.242,0.0,0.0,0.0,-3.473451302893247,0.0,0.0,0.0,0.0,0.0,0.0,0.0,0.0,16,43,0,4,0.96,2024-07-19T11: 52: 04.500+03: 00,45567,new.004.001.
59.9585699,30.344996,7.794,5.325,0.0,0.0,0.0,-3.4707600051866723,0.0,0.0,0.0,0.0,0.0,0.0,0.0,0.0,16,43,0,4,0.96,2024-07-19T11: 52: 04.600+03: 00,45668,new.004.001.
59.9585655,30.3449929,7.792,5.264,0.0,0.0,0.0,-3.4805844635461476,0.0,0.0,0.0,0.0,0.0,0.0,0.0,0.0,16,43,0,4,0.96,2024-07-19T11: 52: 04.700+03: 00,45764,new.004.001.
59.9585611,30.3449897,7.785,5.239,0.0,0.0,0.0,-3.482609045478461,0.0,0.0,0.0,0.0,0.0,0.0,0.0,0.0,16,43,0,4,0.96,2024-07-19T11: 52: 04.800+03: 00,45866,new.004.001.
59.9585566,30.3449867,7.785,5.247,0.0,0.0,0.0,-3.468560890329159,0.0,0.0,0.0,0.0,0.0,0.0,0.0,0.0,16,43,0,4,0.96,2024-07-19T11: 52: 04.900+03: 00,45967,new.004.001.
59.9585522,30.3449836,7.779,5.286,0.0,0.0,0.0,-3.4727479352046937,0.0,0.0,0.0,0.0,0.0,0.0,0.0,0.0,16,43,0,4,0.93,2024-07-19T11: 52: 05.000+03: 00,46072,new.004.001.
59.9585477,30.3449805,7.777,5.271,0.0,0.0,0.0,-3.478692526636986,0.0,0.0,0.0,0.0,0.0,0.0,0.0,0.0,16,43,0,4,0.93,2024-07-19T11: 52: 05.100+03: 00,46169,new.004.001.
59.9585432,30.3449773,7.774,5.347,0.0,0.0,0.0,-3.4812075460891094,0.0,0.0,0.0,0.0,0.0,0.0,0.0,0.0,16,43,0,4,0.93,2024-07-19T11: 52: 05.200+03: 00,46269,new.004.001.
59.9585388,30.3449742,7.77,5.248,0.0,0.0,0.0,-3.474706194625431,0.0,0.0,0.0,0.0,0.0,0.0,0.0,0.0,16,43,0,4,0.93,2024-07-19T11: 52: 05.300+03: 00,46370,new.004.001.
59.9585342,30.3449711,7.766,5.328,0.0,0.0,0.0,-3.4739853736443576,0.0,0.0,0.0,0.0,0.0,0.0,0.0,0.0,16,43,0,4,0.93,2024-07-19T11: 52: 05.400+03: 00,46474,new.004.001.
59.9585297,30.3449679,7.757,5.306,0.0,0.0,0.0,-3.4808672068849704,0.0,0.0,0.0,0.0,0.0,0.0,0.0,0.0,16,43,0,4,0.93,2024-07-19T11: 52: 05.500+03: 00,46568,new.004.001.
59.9585252,30.3449648,7.755,5.306,0.0,0.0,0.0,-3.473995845619869,0.0,0.0,0.0,0.0,0.0,0.0,0.0,0.0,16,43,0,4,0.93,2024-07-19T11: 52: 05.600+03: 00,46666,new.004.001.
59.9585207,30.3449616,7.751,5.368,0.0,0.0,0.0,-3.477985668289928,0.0,0.0,0.0,0.0,0.0,0.0,0.0,0.0,16,43,0,4,0.93,2024-07-19T11: 52: 05.700+03: 00,46768,new.004.001.
59.9585162,30.3449584,7.745,5.355,0.0,0.0,0.0,-3.4803226641583485,0.0,0.0,0.0,0.0,0.0,0.0,0.0,0.0,16,43,0,4,0.93,2024-07-19T11: 52: 05.800+03: 00,46868,new.004.001.
59.9585118,30.3449552,7.747,5.261,0.0,0.0,0.0,-3.49092204870571,0.0,0.0,0.0,0.0,0.0,0.0,0.0,0.0,16,43,0,4,0.93,2024-07-19T11: 52: 05.900+03: 00,46969,new.004.001.
59.9585073,30.3449522,7.737,5.286,0.0,0.0,0.0,-3.4694562442354315,0.0,0.0,0.0,0.0,0.0,0.0,0.0,0.0,16,43,0,4,0.93,2024-07-19T11: 52: 06.000+03: 00,47074,new.004.001.
59.9585027,30.3449489,7.74,5.357,0.0,0.0,0.0,-3.4794011303132955,0.0,0.0,0.0,0.0,0.0,0.0,0.0,0.0,16,43,0,4,0.93,2024-07-19T11: 52: 06.100+03: 00,47170,new.004.001.
59.9584982,30.3449458,7.742,5.366,0.0,0.0,0.0,-3.4784028019811544,0.0,0.0,0.0,0.0,0.0,0.0,0.0,0.0,16,43,0,4,0.93,2024-07-19T11: 52: 06.200+03: 00,47276,new.004.001.
59.9584936,30.3449428,7.732,5.38,0.0,0.0,0.0,-3.465110374397966,0.0,0.0,0.0,0.0,0.0,0.0,0.0,0.0,16,43,0,4,0.93,2024-07-19T11: 52: 06.300+03: 00,47368,new.004.001.
59.9584891,30.3449394,7.724,5.361,0.0,0.0,0.0,-3.4910442217533495,0.0,0.0,0.0,0.0,0.0,0.0,0.0,0.0,15,43,0,4,0.93,2024-07-19T11: 52: 06.400+03: 00,47468,new.004.001.
59.9584846,30.3449363,7.723,5.335,0.0,0.0,0.0,-3.4799072757963736,0.0,0.0,0.0,0.0,0.0,0.0,0.0,0.0,16,43,0,4,0.97,2024-07-19T11: 52: 06.500+03: 00,47565,new.004.001.
59.95848,30.3449331,7.717,5.347,0.0,0.0,0.0,-3.48048148912028,0.0,0.0,0.0,0.0,0.0,0.0,0.0,0.0,17,43,0,4,0.93,2024-07-19T11: 52: 06.600+03: 00,47667,new.004.001.
59.9584755,30.3449297,7.717,5.427,0.0,0.0,0.0,-3.4918400918922594,0.0,0.0,0.0,0.0,0.0,0.0,0.0,0.0,16,43,0,4,0.93,2024-07-19T11: 52: 06.700+03: 00,47767,new.004.001.
59.9584709,30.3449268,7.706,5.334,0.0,0.0,0.0,-3.4665624883356254,0.0,0.0,0.0,0.0,0.0,0.0,0.0,0.0,16,43,0,4,0.93,2024-07-19T11: 52: 06.800+03: 00,47866,new.004.001.
59.9584664,30.3449236,7.704,5.378,0.0,0.0,0.0,-3.4741127826797524,0.0,0.0,0.0,0.0,0.0,0.0,0.0,0.0,16,43,0,4,0.93,2024-07-19T11: 52: 06.900+03: 00,47965,new.004.001.
59.9584619,30.3449203,7.707,5.361,0.0,0.0,0.0,-3.4877647480888525,0.0,0.0,0.0,0.0,0.0,0.0,0.0,0.0,15,43,0,4,0.93,2024-07-19T11: 52: 07.000+03: 00,48072,new.004.001.
59.9584573,30.3449172,7.704,5.355,0.0,0.0,0.0,-3.4796699110181026,0.0,0.0,0.0,0.0,0.0,0.0,0.0,0.0,16,43,0,4,0.97,2024-07-19T11: 52: 07.100+03: 00,48168,new.004.001.
59.9584527,30.3449139,7.695,5.406,0.0,0.0,0.0,-3.4759331610895825,0.0,0.0,0.0,0.0,0.0,0.0,0.0,0.0,16,43,0,4,0.93,2024-07-19T11: 52: 07.200+03: 00,48267,new.004.001.
59.9584481,30.3449108,7.693,5.387,0.0,0.0,0.0,-3.47299053597072,0.0,0.0,0.0,0.0,0.0,0.0,0.0,0.0,17,43,0,4,0.93,2024-07-19T11: 52: 07.300+03: 00,48370,new.004.001.
59.9584435,30.3449076,7.687,5.458,0.0,0.0,0.0,-3.4771618728829865,0.0,0.0,0.0,0.0,0.0,0.0,0.0,0.0,16,43,0,4,0.79,2024-07-19T11: 52: 07.400+03: 00,48470,new.004.001.
59.9584391,30.3449044,7.69,5.3,0.0,0.0,0.0,-3.4811621675285584,0.0,0.0,0.0,0.0,0.0,0.0,0.0,0.0,16,43,0,4,0.79,2024-07-19T11: 52: 07.500+03: 00,48566,new.004.001.
59.9584344,30.3449011,7.685,5.43,0.0,0.0,0.0,-3.4852270393564524,0.0,0.0,0.0,0.0,0.0,0.0,0.0,0.0,16,43,0,4,0.93,2024-07-19T11: 52: 07.600+03: 00,48668,new.004.001.
59.9584298,30.3448979,7.682,5.422,0.0,0.0,0.0,-3.4763276055005337,0.0,0.0,0.0,0.0,0.0,0.0,0.0,0.0,16,43,0,4,0.93,2024-07-19T11: 52: 07.700+03: 00,48767,new.004.001.
59.9584253,30.3448948,7.679,5.383,0.0,0.0,0.0,-3.4753903636922128,0.0,0.0,0.0,0.0,0.0,0.0,0.0,0.0,16,43,0,4,0.93,2024-07-19T11: 52: 07.800+03: 00,48866,new.004.001.
59.9584207,30.3448915,7.665,5.407,0.0,0.0,0.0,-3.480745033837331,0.0,0.0,0.0,0.0,0.0,0.0,0.0,0.0,16,43,0,4,0.93,2024-07-19T11: 52: 07.900+03: 00,48966,new.004.001.
59.9584162,30.3448884,7.669,5.325,0.0,0.0,0.0,-3.4775964598667333,0.0,0.0,0.0,0.0,0.0,0.0,0.0,0.0,15,43,0,4,0.93,2024-07-19T11: 52: 08.000+03: 00,49072,new.004.001.
59.9584117,30.3448854,7.663,5.346,0.0,0.0,0.0,-3.464403516050908,0.0,0.0,0.0,0.0,0.0,0.0,0.0,0.0,16,43,0,4,0.93,2024-07-19T11: 52: 08.100+03: 00,49169,new.004.002.
59.9584073,30.3448823,7.656,5.253,0.0,0.0,0.0,-3.471967773029052,0.0,0.0,0.0,0.0,0.0,0.0,0.0,0.0,16,43,0,4,0.93,2024-07-19T11: 52: 08.200+03: 00,49272,new.004.002.
59.9584028,30.3448792,7.644,5.28,0.0,0.0,0.0,-3.474465339188656,0.0,0.0,0.0,0.0,0.0,0.0,0.0,0.0,16,43,0,4,0.93,2024-07-19T11: 52: 08.300+03: 00,49365,new.004.002.
59.9583984,30.3448762,7.647,5.207,0.0,0.0,0.0,-3.468477114525063,0.0,0.0,0.0,0.0,0.0,0.0,0.0,0.0,16,43,0,4,0.93,2024-07-19T11: 52: 08.400+03: 00,49479,new.004.002.
59.9583941,30.344873,7.643,5.15,0.0,0.0,0.0,-3.4930810209904273,0.0,0.0,0.0,0.0,0.0,0.0,0.0,0.0,16,43,0,4,0.93,2024-07-19T11: 52: 08.500+03: 00,49566,new.004.002.
59.9583898,30.34487,7.639,5.076,0.0,0.0,0.0,-3.480930038738043,0.0,0.0,0.0,0.0,0.0,0.0,0.0,0.0,16,43,0,4,0.93,2024-07-19T11: 52: 08.600+03: 00,49681,new.004.002.
59.9583856,30.344867,7.636,5.016,0.0,0.0,0.0,-3.480949237359815,0.0,0.0,0.0,0.0,0.0,0.0,0.0,0.0,16,43,0,4,0.93,2024-07-19T11: 52: 08.700+03: 00,49764,new.004.002.
59.9583813,30.3448643,7.631,4.99,0.0,0.0,0.0,-3.4674578422418985,0.0,0.0,0.0,0.0,0.0,0.0,0.0,0.0,16,43,0,4,0.93,2024-07-19T11: 52: 08.800+03: 00,49865,new.004.002.
59.9583772,30.3448613,7.634,4.927,0.0,0.0,0.0,-3.4764480332189214,0.0,0.0,0.0,0.0,0.0,0.0,0.0,0.0,16,43,0,4,0.93,2024-07-19T11: 52: 08.900+03: 00,49965,new.004.002.
59.9583731,30.3448585,7.63,4.853,0.0,0.0,0.0,-3.479685618981371,0.0,0.0,0.0,0.0,0.0,0.0,0.0,0.0,16,43,0,4,0.93,2024-07-19T11: 52: 09.000+03: 00,50072,new.004.002.
59.958369,30.3448557,7.637,4.828,0.0,0.0,0.0,-3.4722260817583472,0.0,0.0,0.0,0.0,0.0,0.0,0.0,0.0,16,43,0,4,0.93,2024-07-19T11: 52: 09.100+03: 00,50167,new.004.002.
59.958365,30.3448528,7.628,4.788,0.0,0.0,0.0,-3.482509561711097,0.0,0.0,0.0,0.0,0.0,0.0,0.0,0.0,16,43,0,4,0.93,2024-07-19T11: 52: 09.200+03: 00,50265,new.004.002.
59.9583611,30.3448501,7.631,4.624,0.0,0.0,0.0,-3.4879672062820837,0.0,0.0,0.0,0.0,0.0,0.0,0.0,0.0,16,43,0,4,0.93,2024-07-19T11: 52: 09.300+03: 00,50367,new.004.002.
59.9583571,30.3448474,7.632,4.688,0.0,0.0,0.0,-3.47194857440728,0.0,0.0,0.0,0.0,0.0,0.0,0.0,0.0,16,43,0,4,0.93,2024-07-19T11: 52: 09.400+03: 00,50472,new.004.002.
59.9583533,30.3448448,7.624,4.597,0.0,0.0,0.0,-3.469590634587836,0.0,0.0,0.0,0.0,0.0,0.0,0.0,0.0,16,43,0,4,0.93,2024-07-19T11: 52: 09.500+03: 00,50565,new.004.002.
59.9583495,30.3448421,7.619,4.525,0.0,0.0,0.0,-3.475245501364297,0.0,0.0,0.0,0.0,0.0,0.0,0.0,0.0,15,43,0,4,0.93,2024-07-19T11: 52: 09.600+03: 00,50667,new.004.002.
59.9583456,30.3448394,7.62,4.528,0.0,0.0,0.0,-3.4770030479210554,0.0,0.0,0.0,0.0,0.0,0.0,0.0,0.0,15,43,0,4,1.01,2024-07-19T11: 52: 09.700+03: 00,50766,new.004.002.
59.9583419,30.3448369,7.615,4.405,0.0,0.0,0.0,-3.4683252708801393,0.0,0.0,0.0,0.0,0.0,0.0,0.0,0.0,15,43,0,4,1.01,2024-07-19T11: 52: 09.800+03: 00,50866,new.004.002.
59.9583382,30.3448342,7.613,4.407,0.0,0.0,0.0,-3.491977972903167,0.0,0.0,0.0,0.0,0.0,0.0,0.0,0.0,15,43,0,4,1.01,2024-07-19T11: 52: 09.900+03: 00,50965,new.004.002.
59.9583347,30.3448316,7.605,4.282,0.0,0.0,0.0,-3.4841274819276964,0.0,0.0,0.0,0.0,0.0,0.0,0.0,0.0,15,43,0,4,1.01,2024-07-19T11: 52: 10.000+03: 00,51073,new.004.002.
59.958331,30.3448291,7.598,4.274,0.0,0.0,0.0,-3.4678749759331255,0.0,0.0,0.0,0.0,0.0,0.0,0.0,0.0,15,43,0,4,1.01,2024-07-19T11: 52: 10.100+03: 00,51167,new.004.002.
59.9583275,30.3448266,7.595,4.215,0.0,0.0,0.0,-3.4761164206610426,0.0,0.0,0.0,0.0,0.0,0.0,0.0,0.0,15,43,0,4,1.01,2024-07-19T11: 52: 10.200+03: 00,51273,new.004.002.
59.9583239,30.3448241,7.588,4.192,0.0,0.0,0.0,-3.4840349794773404,0.0,0.0,0.0,0.0,0.0,0.0,0.0,0.0,14,43,0,4,1.01,2024-07-19T11: 52: 10.300+03: 00,51369,new.004.002.
59.9583205,30.3448215,7.581,4.122,0.0,0.0,0.0,-3.4899970242021534,0.0,0.0,0.0,0.0,0.0,0.0,0.0,0.0,14,43,0,4,1.04,2024-07-19T11: 52: 10.400+03: 00,51467,new.004.002.
59.9583171,30.3448193,7.584,4.027,0.0,0.0,0.0,-3.475032571195554,0.0,0.0,0.0,0.0,0.0,0.0,0.0,0.0,14,43,0,4,1.04,2024-07-19T11: 52: 10.500+03: 00,51568,new.004.002.
59.9583138,30.344817,7.584,3.991,0.0,0.0,0.0,-3.4667317852730686,0.0,0.0,0.0,0.0,0.0,0.0,0.0,0.0,14,43,0,4,1.04,2024-07-19T11: 52: 10.600+03: 00,51667,new.004.002.
59.9583105,30.3448148,7.582,3.883,0.0,0.0,0.0,-3.469175246225861,0.0,0.0,0.0,0.0,0.0,0.0,0.0,0.0,14,43,0,4,0.89,2024-07-19T11: 52: 10.700+03: 00,51766,new.004.002.
59.9583073,30.3448123,7.569,3.875,0.0,0.0,0.0,-3.49210363660931,0.0,0.0,0.0,0.0,0.0,0.0,0.0,0.0,15,43,0,4,0.89,2024-07-19T11: 52: 10.800+03: 00,51866,new.004.002.
59.958304,30.3448101,7.566,3.839,0.0,0.0,0.0,-3.474140707947784,0.0,0.0,0.0,0.0,0.0,0.0,0.0,0.0,15,43,0,4,0.86,2024-07-19T11: 52: 10.900+03: 00,51967,new.004.002.
59.9583008,30.3448079,7.576,3.805,0.0,0.0,0.0,-3.471369125095618,0.0,0.0,0.0,0.0,0.0,0.0,0.0,0.0,15,43,0,4,0.86,2024-07-19T11: 52: 11.000+03: 00,52069,new.004.002.
59.9582976,30.3448057,7.564,3.79,0.0,0.0,0.0,-3.4688558509727456,0.0,0.0,0.0,0.0,0.0,0.0,0.0,0.0,15,43,0,4,0.86,2024-07-19T11: 52: 11.100+03: 00,52169,new.004.002.
59.9582944,30.3448033,7.558,3.852,0.0,0.0,0.0,-3.492169959120886,0.0,0.0,0.0,0.0,0.0,0.0,0.0,0.0,16,43,0,4,0.86,2024-07-19T11: 52: 11.200+03: 00,52268,new.004.002.
59.9582912,30.3448011,7.562,3.779,0.0,0.0,0.0,-3.4765510076447885,0.0,0.0,0.0,0.0,0.0,0.0,0.0,0.0,15,43,0,4,0.77,2024-07-19T11: 52: 11.300+03: 00,52370,new.004.002.
59.958288,30.3447988,7.557,3.796,0.0,0.0,0.0,-3.4896497036810064,0.0,0.0,0.0,0.0,0.0,0.0,0.0,0.0,14,43,0,4,0.82,2024-07-19T11: 52: 11.400+03: 00,52473,new.004.002.
59.9582847,30.3447964,7.556,3.811,0.0,0.0,0.0,-3.4854068082694076,0.0,0.0,0.0,0.0,0.0,0.0,0.0,0.0,14,43,0,4,0.86,2024-07-19T11: 52: 11.500+03: 00,52569,new.004.002.
59.9582816,30.344794,7.549,3.766,0.0,0.0,0.0,-3.506408355158656,0.0,0.0,0.0,0.0,0.0,0.0,0.0,0.0,14,43,0,4,0.86,2024-07-19T11: 52: 11.600+03: 00,52708,new.004.002.
59.9582784,30.3447916,7.555,3.792,0.0,0.0,0.0,-3.502252726209657,0.0,0.0,0.0,0.0,0.0,0.0,0.0,0.0,14,43,0,4,0.86,2024-07-19T11: 52: 11.700+03: 00,52766,new.004.002.
59.9582752,30.344789,7.538,3.815,0.0,0.0,0.0,-3.5176517662000037,0.0,0.0,0.0,0.0,0.0,0.0,0.0,0.0,13,43,0,4,0.86,2024-07-19T11: 52: 11.800+03: 00,52866,new.004.002.
59.9582722,30.3447865,7.545,3.729,0.0,0.0,0.0,-3.530593382603541,0.0,0.0,0.0,0.0,0.0,0.0,0.0,0.0,13,43,0,4,0.85,2024-07-19T11: 52: 11.900+03: 00,52963,new.004.002.
59.958269,30.3447838,7.54,3.858,0.0,0.0,0.0,-3.5354645965458573,0.0,0.0,0.0,0.0,0.0,0.0,0.0,0.0,14,43,0,4,0.85,2024-07-19T11: 52: 12.000+03: 00,53072,new.004.002.
59.958266,30.3447811,7.537,3.709,0.0,0.0,0.0,-3.5467638581232683,0.0,0.0,0.0,0.0,0.0,0.0,0.0,0.0,16,43,0,4,0.85,2024-07-19T11: 52: 12.100+03: 00,53169,new.004.002.
59.9582629,30.3447782,7.518,3.798,0.0,0.0,0.0,-3.5761010975200413,0.0,0.0,0.0,0.0,0.0,0.0,0.0,0.0,15,43,0,4,0.82,2024-07-19T11: 52: 12.200+03: 00,53271,new.004.002.
59.9582598,30.3447754,7.524,3.774,0.0,0.0,0.0,-3.5658001642747705,0.0,0.0,0.0,0.0,0.0,0.0,0.0,0.0,16,43,0,4,0.85,2024-07-19T11: 52: 12.300+03: 00,53370,new.004.002.
59.9582567,30.3447726,7.517,3.732,0.0,0.0,0.0,-3.581190477618857,0.0,0.0,0.0,0.0,0.0,0.0,0.0,0.0,16,43,0,4,0.82,2024-07-19T11: 52: 12.400+03: 00,53467,new.004.002.
59.9582538,30.3447697,7.508,3.637,0.0,0.0,0.0,-3.604588361571093,0.0,0.0,0.0,0.0,0.0,0.0,0.0,0.0,16,43,0,4,0.82,2024-07-19T11: 52: 12.500+03: 00,53566,new.004.002.
59.958251,30.3447665,7.509,3.601,0.0,0.0,0.0,-3.6326358026506416,0.0,0.0,0.0,0.0,0.0,0.0,0.0,0.0,15,43,0,4,0.82,2024-07-19T11: 52: 12.600+03: 00,53667,new.004.002.
59.9582481,30.3447636,7.504,3.611,0.0,0.0,0.0,-3.6182909415285,0.0,0.0,0.0,0.0,0.0,0.0,0.0,0.0,15,43,0,4,0.82,2024-07-19T11: 52: 12.700+03: 00,53766,new.004.002.
59.9582453,30.3447605,7.499,3.636,0.0,0.0,0.0,-3.63812137248966,0.0,0.0,0.0,0.0,0.0,0.0,0.0,0.0,14,43,0,4,0.82,2024-07-19T11: 52: 12.800+03: 00,53863,new.004.002.
59.9582428,30.3447572,7.499,3.416,0.0,0.0,0.0,-3.6919490719504164,0.0,0.0,0.0,0.0,0.0,0.0,0.0,0.0,14,43,0,4,0.83,2024-07-19T11: 52: 12.900+03: 00,53965,new.004.002.
59.9582399,30.3447539,7.493,3.574,0.0,0.0,0.0,-3.6844563734716056,0.0,0.0,0.0,0.0,0.0,0.0,0.0,0.0,15,43,0,4,0.83,2024-07-19T11: 52: 13.000+03: 00,54074,new.004.002.
59.9582372,30.3447507,7.487,3.503,0.0,0.0,0.0,-3.6694570138799665,0.0,0.0,0.0,0.0,0.0,0.0,0.0,0.0,16,43,0,4,0.76,2024-07-19T11: 52: 13.100+03: 00,54167,new.004.002.
59.9582346,30.3447472,7.48,3.553,0.0,0.0,0.0,-3.707281789429187,0.0,0.0,0.0,0.0,0.0,0.0,0.0,0.0,16,43,0,4,0.75,2024-07-19T11: 52: 13.200+03: 00,54266,new.004.002.
59.9582319,30.3447435,7.477,3.591,0.0,0.0,0.0,-3.7391968801311553,0.0,0.0,0.0,0.0,0.0,0.0,0.0,0.0,16,43,0,4,0.75,2024-07-19T11: 52: 13.300+03: 00,54369,new.004.002.
59.9582294,30.3447401,7.467,3.453,0.0,0.0,0.0,-3.7280529528571718,0.0,0.0,0.0,0.0,0.0,0.0,0.0,0.0,16,43,0,4,0.75,2024-07-19T11: 52: 13.400+03: 00,54472,new.004.002.
59.9582268,30.3447366,7.462,3.445,0.0,0.0,0.0,-3.7415286400118197,0.0,0.0,0.0,0.0,0.0,0.0,0.0,0.0,16,43,0,4,0.77,2024-07-19T11: 52: 13.500+03: 00,54567,new.004.002.
59.9582242,30.3447325,7.464,3.616,0.0,0.0,0.0,-3.7879194915298293,0.0,0.0,0.0,0.0,0.0,0.0,0.0,0.0,16,43,0,4,0.75,2024-07-19T11: 52: 13.600+03: 00,54668,new.004.002.
59.9582217,30.3447287,7.453,3.552,0.0,0.0,0.0,-3.7913752434487784,0.0,0.0,0.0,0.0,0.0,0.0,0.0,0.0,16,43,0,4,0.82,2024-07-19T11: 52: 13.700+03: 00,54765,new.004.002.
59.9582193,30.3447248,7.454,3.447,0.0,0.0,0.0,-3.814979076252749,0.0,0.0,0.0,0.0,0.0,0.0,0.0,0.0,16,43,0,4,0.82,2024-07-19T11: 52: 13.800+03: 00,54866,new.004.002.
59.9582169,30.3447208,7.446,3.492,0.0,0.0,0.0,-3.8187262981567813,0.0,0.0,0.0,0.0,0.0,0.0,0.0,0.0,16,43,0,4,0.82,2024-07-19T11: 52: 13.900+03: 00,54966,new.004.002.
59.9582144,30.344717,7.448,3.498,0.0,0.0,0.0,-3.8005713832775356,0.0,0.0,0.0,0.0,0.0,0.0,0.0,0.0,15,43,0,4,0.82,2024-07-19T11: 52: 14.000+03: 00,55071,new.004.002.
59.9582121,30.3447129,7.444,3.487,0.0,0.0,0.0,-3.8337588190042085,0.0,0.0,0.0,0.0,0.0,0.0,0.0,0.0,16,43,0,4,0.76,2024-07-19T11: 52: 14.100+03: 00,55167,new.004.002.
59.9582098,30.3447087,7.437,3.47,0.0,0.0,0.0,-3.86281506039141,0.0,0.0,0.0,0.0,0.0,0.0,0.0,0.0,15,43,0,4,0.76,2024-07-19T11: 52: 14.200+03: 00,55271,new.004.002.
59.9582074,30.3447048,7.443,3.468,0.0,0.0,0.0,-3.8494859808939292,0.0,0.0,0.0,0.0,0.0,0.0,0.0,0.0,17,43,0,4,0.79,2024-07-19T11: 52: 14.300+03: 00,55366,new.004.002.
59.958205,30.3447006,7.43,3.513,0.0,0.0,0.0,-3.8545771063219965,0.0,0.0,0.0,0.0,0.0,0.0,0.0,0.0,17,43,0,4,0.72,2024-07-19T11: 52: 14.400+03: 00,55466,new.004.002.
59.9582027,30.3446964,7.425,3.467,0.0,0.0,0.0,-3.875123122276474,0.0,0.0,0.0,0.0,0.0,0.0,0.0,0.0,17,43,0,4,0.72,2024-07-19T11: 52: 14.500+03: 00,55566,new.004.002.
59.9582004,30.3446921,7.419,3.531,0.0,0.0,0.0,-3.8822580282586268,0.0,0.0,0.0,0.0,0.0,0.0,0.0,0.0,16,43,0,4,0.72,2024-07-19T11: 52: 14.600+03: 00,55663,new.004.002.
59.9581981,30.344688,7.434,3.439,0.0,0.0,0.0,-3.8825948768042617,0.0,0.0,0.0,0.0,0.0,0.0,0.0,0.0,17,43,0,4,0.72,2024-07-19T11: 52: 14.700+03: 00,55766,new.004.002.
59.9581959,30.3446836,7.428,3.498,0.0,0.0,0.0,-3.905826954477558,0.0,0.0,0.0,0.0,0.0,0.0,0.0,0.0,17,43,0,4,0.72,2024-07-19T11: 52: 14.800+03: 00,55865,new.004.002.
59.9581938,30.3446791,7.422,3.489,0.0,0.0,0.0,-3.934588235221173,0.0,0.0,0.0,0.0,0.0,0.0,0.0,0.0,17,43,0,4,0.72,2024-07-19T11: 52: 14.900+03: 00,55963,new.004.002.
59.9581915,30.3446748,7.418,3.491,0.0,0.0,0.0,-3.9132672930788095,0.0,0.0,0.0,0.0,0.0,0.0,0.0,0.0,16,43,0,4,0.8,2024-07-19T11: 52: 15.000+03: 00,56069,new.004.002.
59.9581892,30.3446701,7.43,3.606,0.0,0.0,0.0,-3.9309911116328125,0.0,0.0,0.0,0.0,0.0,0.0,0.0,0.0,15,43,0,4,0.83,2024-07-19T11: 52: 15.100+03: 00,56167,new.004.002.
59.9581871,30.3446654,7.406,3.569,0.0,0.0,0.0,-3.958003572465929,0.0,0.0,0.0,0.0,0.0,0.0,0.0,0.0,15,43,0,4,0.83,2024-07-19T11: 52: 15.200+03: 00,56265,new.004.002.
59.9581848,30.3446605,7.405,3.672,0.0,0.0,0.0,-3.9645590291364194,0.0,0.0,0.0,0.0,0.0,0.0,0.0,0.0,15,43,0,4,0.83,2024-07-19T11: 52: 15.300+03: 00,56370,new.004.002.
59.9581826,30.3446559,7.408,3.607,0.0,0.0,0.0,-3.9592183216253165,0.0,0.0,0.0,0.0,0.0,0.0,0.0,0.0,16,43,0,4,0.83,2024-07-19T11: 52: 15.400+03: 00,56470,new.004.002.
59.9581803,30.344651,7.405,3.672,0.0,0.0,0.0,-3.9708858476748983,0.0,0.0,0.0,0.0,0.0,0.0,0.0,0.0,16,43,0,4,0.83,2024-07-19T11: 52: 15.500+03: 00,56561,new.004.002.
59.9581782,30.3446459,7.385,3.715,0.0,0.0,0.0,-3.9972403193800132,0.0,0.0,0.0,0.0,0.0,0.0,0.0,0.0,15,43,0,4,0.83,2024-07-19T11: 52: 15.600+03: 00,56664,new.004.002.
59.958176,30.3446406,7.394,3.795,0.0,0.0,0.0,-4.005155387537807,0.0,0.0,0.0,0.0,0.0,0.0,0.0,0.0,13,43,0,4,0.83,2024-07-19T11: 52: 15.700+03: 00,56764,new.004.002.
59.9581738,30.3446354,7.389,3.8,0.0,0.0,0.0,-4.019732377450465,0.0,0.0,0.0,0.0,0.0,0.0,0.0,0.0,12,43,0,4,0.89,2024-07-19T11: 52: 15.800+03: 00,56864,new.004.002.
59.9581716,30.3446301,7.383,3.803,0.0,0.0,0.0,-4.015938031656629,0.0,0.0,0.0,0.0,0.0,0.0,0.0,0.0,14,43,0,4,0.89,2024-07-19T11: 52: 15.900+03: 00,56964,new.004.002.
59.9581696,30.3446246,7.383,3.809,0.0,0.0,0.0,-4.0502110621780405,0.0,0.0,0.0,0.0,0.0,0.0,0.0,0.0,15,43,0,4,0.89,2024-07-19T11: 52: 16.000+03: 00,57087,new.004.002.
59.9581677,30.3446191,7.372,3.791,0.0,0.0,0.0,-4.080916639708377,0.0,0.0,0.0,0.0,0.0,0.0,0.0,0.0,16,43,0,4,0.85,2024-07-19T11: 52: 16.100+03: 00,57167,new.004.002.
59.9581657,30.3446135,7.389,3.815,0.0,0.0,0.0,-4.090034239720795,0.0,0.0,0.0,0.0,0.0,0.0,0.0,0.0,14,43,0,4,0.78,2024-07-19T11: 52: 16.200+03: 00,57272,new.004.002.
59.9581637,30.3446079,7.395,3.831,0.0,0.0,0.0,-4.100972218143044,0.0,0.0,0.0,0.0,0.0,0.0,0.0,0.0,15,43,0,4,0.97,2024-07-19T11: 52: 16.300+03: 00,57370,new.004.002.
59.9581619,30.3446021,7.396,3.846,0.0,0.0,0.0,-4.1140307716064655,0.0,0.0,0.0,0.0,0.0,0.0,0.0,0.0,15,43,0,4,0.81,2024-07-19T11: 52: 16.400+03: 00,57464,new.004.002.
59.95816,30.3445963,7.369,3.873,0.0,0.0,0.0,-4.13738327699815,0.0,0.0,0.0,0.0,0.0,0.0,0.0,0.0,16,43,0,4,0.81,2024-07-19T11: 52: 16.500+03: 00,57566,new.004.002.
59.9581581,30.3445908,7.359,3.771,0.0,0.0,0.0,-4.121354173147834,0.0,0.0,0.0,0.0,0.0,0.0,0.0,0.0,15,43,0,4,0.78,2024-07-19T11: 52: 16.600+03: 00,57666,new.004.002.
59.9581564,30.344585,7.386,3.773,0.0,0.0,0.0,-4.153880129088,0.0,0.0,0.0,0.0,0.0,0.0,0.0,0.0,16,43,0,4,0.81,2024-07-19T11: 52: 16.700+03: 00,57765,new.004.002.
59.9581546,30.3445791,7.374,3.834,0.0,0.0,0.0,-4.157290502446397,0.0,0.0,0.0,0.0,0.0,0.0,0.0,0.0,15,43,0,4,0.78,2024-07-19T11: 52: 16.800+03: 00,57865,new.004.002.
59.9581527,30.3445732,7.388,3.877,0.0,0.0,0.0,-4.149584873798842,0.0,0.0,0.0,0.0,0.0,0.0,0.0,0.0,14,43,0,4,0.81,2024-07-19T11: 52: 16.900+03: 00,57966,new.004.002.
59.9581512,30.3445675,7.378,3.713,0.0,0.0,0.0,-4.186467171551986,0.0,0.0,0.0,0.0,0.0,0.0,0.0,0.0,13,43,0,4,0.8,2024-07-19T11: 52: 17.000+03: 00,58071,new.004.002.
59.9581495,30.3445616,7.36,3.777,0.0,0.0,0.0,-4.197401659315731,0.0,0.0,0.0,0.0,0.0,0.0,0.0,0.0,13,43,0,4,0.8,2024-07-19T11: 52: 17.100+03: 00,58167,new.004.002.
59.9581477,30.3445556,7.369,3.828,0.0,0.0,0.0,-4.197049102806828,0.0,0.0,0.0,0.0,0.0,0.0,0.0,0.0,13,43,0,4,0.87,2024-07-19T11: 52: 17.200+03: 00,58267,new.004.002.
59.9581462,30.3445498,7.386,3.749,0.0,0.0,0.0,-4.205683246616444,0.0,0.0,0.0,0.0,0.0,0.0,0.0,0.0,15,43,0,4,0.87,2024-07-19T11: 52: 17.300+03: 00,58366,new.004.002.
59.9581448,30.3445437,7.356,3.756,0.0,0.0,0.0,-4.245745534266722,0.0,0.0,0.0,0.0,0.0,0.0,0.0,0.0,15,43,0,4,0.79,2024-07-19T11: 52: 17.400+03: 00,58475,new.004.002.
59.9581432,30.3445378,7.346,3.702,0.0,0.0,0.0,-4.235226434864952,0.0,0.0,0.0,0.0,0.0,0.0,0.0,0.0,15,43,0,4,0.79,2024-07-19T11: 52: 17.500+03: 00,58566,new.004.002.
59.9581418,30.3445319,7.359,3.718,0.0,0.0,0.0,-4.249681251729969,0.0,0.0,0.0,0.0,0.0,0.0,0.0,0.0,15,43,0,4,0.79,2024-07-19T11: 52: 17.600+03: 00,58667,new.004.002.
59.9581402,30.3445259,7.369,3.748,0.0,0.0,0.0,-4.245122451723759,0.0,0.0,0.0,0.0,0.0,0.0,0.0,0.0,14,43,0,4,0.79,2024-07-19T11: 52: 17.700+03: 00,58766,new.004.002.
59.9581389,30.3445198,7.348,3.708,0.0,0.0,0.0,-4.276301013481387,0.0,0.0,0.0,0.0,0.0,0.0,0.0,0.0,14,43,0,4,0.84,2024-07-19T11: 52: 17.800+03: 00,58865,new.004.002.
59.9581376,30.3445137,7.337,3.733,0.0,0.0,0.0,-4.29551359788734,0.0,0.0,0.0,0.0,0.0,0.0,0.0,0.0,14,43,0,4,0.84,2024-07-19T11: 52: 17.900+03: 00,58964,new.004.002.
59.9581363,30.3445078,7.352,3.65,0.0,0.0,0.0,-4.289659763576152,0.0,0.0,0.0,0.0,0.0,0.0,0.0,0.0,15,43,0,4,0.84,2024-07-19T11: 52: 18.000+03: 00,59071,new.004.002.
59.9581349,30.3445017,7.353,3.703,0.0,0.0,0.0,-4.3009817144338385,0.0,0.0,0.0,0.0,0.0,0.0,0.0,0.0,15,43,0,4,0.77,2024-07-19T11: 52: 18.100+03: 00,59169,new.004.003.
59.9581337,30.3444956,7.339,3.661,0.0,0.0,0.0,-4.303526404483247,0.0,0.0,0.0,0.0,0.0,0.0,0.0,0.0,13,43,0,4,0.77,2024-07-19T11: 52: 18.200+03: 00,59271,new.004.003.
59.9581325,30.3444893,7.35,3.749,0.0,0.0,0.0,-4.337176352461697,0.0,0.0,0.0,0.0,0.0,0.0,0.0,0.0,15,43,0,4,0.87,2024-07-19T11: 52: 18.300+03: 00,59368,new.004.003.
59.9581314,30.3444833,7.351,3.629,0.0,0.0,0.0,-4.3381694448060815,0.0,0.0,0.0,0.0,0.0,0.0,0.0,0.0,14,43,0,4,0.77,2024-07-19T11: 52: 18.400+03: 00,59469,new.004.003.
59.9581303,30.3444771,7.347,3.645,0.0,0.0,0.0,-4.357952751877438,0.0,0.0,0.0,0.0,0.0,0.0,0.0,0.0,14,43,0,4,0.8,2024-07-19T11: 52: 18.500+03: 00,59567,new.004.003.
59.9581293,30.3444709,7.345,3.677,0.0,0.0,0.0,-4.382821948389104,0.0,0.0,0.0,0.0,0.0,0.0,0.0,0.0,14,43,0,4,0.8,2024-07-19T11: 52: 18.600+03: 00,59674,new.004.003.
59.9581282,30.3444647,7.341,3.649,0.0,0.0,0.0,-4.374065631531849,0.0,0.0,0.0,0.0,0.0,0.0,0.0,0.0,14,43,0,4,0.8,2024-07-19T11: 52: 18.700+03: 00,59767,new.004.003.
59.9581273,30.3444585,7.331,3.658,0.0,0.0,0.0,-4.400187974446448,0.0,0.0,0.0,0.0,0.0,0.0,0.0,0.0,14,43,0,4,0.84,2024-07-19T11: 52: 18.800+03: 00,59866,new.004.003.
59.9581264,30.3444522,7.339,3.646,0.0,0.0,0.0,-4.433551688427571,0.0,0.0,0.0,0.0,0.0,0.0,0.0,0.0,14,43,0,4,0.84,2024-07-19T11: 52: 18.900+03: 00,59967,new.004.003.
59.9581255,30.3444461,7.329,3.583,0.0,0.0,0.0,-4.415271109842183,0.0,0.0,0.0,0.0,0.0,0.0,0.0,0.0,13,43,0,4,0.84,2024-07-19T11: 52: 19.000+03: 00,60073,new.004.003.
59.9581247,30.3444398,7.331,3.624,0.0,0.0,0.0,-4.444341313863401,0.0,0.0,0.0,0.0,0.0,0.0,0.0,0.0,16,43,0,4,0.88,2024-07-19T11: 52: 19.100+03: 00,60166,new.004.003.
59.9581238,30.3444335,7.329,3.607,0.0,0.0,0.0,-4.449484799169028,0.0,0.0,0.0,0.0,0.0,0.0,0.0,0.0,16,43,0,4,0.74,2024-07-19T11: 52: 19.200+03: 00,60267,new.004.003.
59.958123,30.3444273,7.32,3.629,0.0,0.0,0.0,-4.447802301770105,0.0,0.0,0.0,0.0,0.0,0.0,0.0,0.0,16,43,0,4,0.74,2024-07-19T11: 52: 19.300+03: 00,60370,new.004.003.
59.9581222,30.3444211,7.321,3.561,0.0,0.0,0.0,-4.460019606534066,0.0,0.0,0.0,0.0,0.0,0.0,0.0,0.0,16,43,0,4,0.79,2024-07-19T11: 52: 19.400+03: 00,60472,new.004.003.
59.9581214,30.3444148,7.322,3.614,0.0,0.0,0.0,-4.475324398744803,0.0,0.0,0.0,0.0,0.0,0.0,0.0,0.0,16,43,0,4,0.79,2024-07-19T11: 52: 19.500+03: 00,60566,new.004.003.
59.9581208,30.3444086,7.311,3.569,0.0,0.0,0.0,-4.491315105351576,0.0,0.0,0.0,0.0,0.0,0.0,0.0,0.0,16,43,0,4,0.79,2024-07-19T11: 52: 19.600+03: 00,60667,new.004.003.
59.9581202,30.3444022,7.318,3.587,0.0,0.0,0.0,-4.514662374755504,0.0,0.0,0.0,0.0,0.0,0.0,0.0,0.0,16,43,0,4,0.79,2024-07-19T11: 52: 19.700+03: 00,60767,new.004.003.
59.9581194,30.344396,7.31,3.603,0.0,0.0,0.0,-4.484085951589815,0.0,0.0,0.0,0.0,0.0,0.0,0.0,0.0,16,43,0,4,0.79,2024-07-19T11: 52: 19.800+03: 00,60865,new.004.003.
59.9581189,30.3443898,7.303,3.516,0.0,0.0,0.0,-4.529022943840913,0.0,0.0,0.0,0.0,0.0,0.0,0.0,0.0,16,43,0,4,0.79,2024-07-19T11: 52: 19.900+03: 00,60965,new.004.003.
59.9581184,30.3443836,7.31,3.527,0.0,0.0,0.0,-4.5330773436932965,0.0,0.0,0.0,0.0,0.0,0.0,0.0,0.0,16,43,0,4,0.79,2024-07-19T11: 52: 20.000+03: 00,61069,new.004.003.
59.9581179,30.3443773,7.308,3.549,0.0,0.0,0.0,-4.544900204046305,0.0,0.0,0.0,0.0,0.0,0.0,0.0,0.0,16,43,0,4,0.79,2024-07-19T11: 52: 20.100+03: 00,61171,new.004.003.
59.9581174,30.3443711,7.301,3.543,0.0,0.0,0.0,-4.559583659043334,0.0,0.0,0.0,0.0,0.0,0.0,0.0,0.0,16,43,0,4,0.74,2024-07-19T11: 52: 20.200+03: 00,61273,new.004.003.
59.958117,30.3443648,7.302,3.531,0.0,0.0,0.0,-4.57868454237716,0.0,0.0,0.0,0.0,0.0,0.0,0.0,0.0,17,43,0,4,0.76,2024-07-19T11: 52: 20.300+03: 00,61366,new.004.003.
59.9581166,30.3443586,7.29,3.499,0.0,0.0,0.0,-4.573013967637431,0.0,0.0,0.0,0.0,0.0,0.0,0.0,0.0,17,43,0,4,0.71,2024-07-19T11: 52: 20.400+03: 00,61467,new.004.003.
59.9581161,30.3443523,7.302,3.524,0.0,0.0,0.0,-4.578944596435707,0.0,0.0,0.0,0.0,0.0,0.0,0.0,0.0,17,43,0,4,0.71,2024-07-19T11: 52: 20.500+03: 00,61568,new.004.003.
59.9581158,30.3443461,7.288,3.504,0.0,0.0,0.0,-4.591126994614628,0.0,0.0,0.0,0.0,0.0,0.0,0.0,0.0,16,43,0,4,0.71,2024-07-19T11: 52: 20.600+03: 00,61667,new.004.003.
59.9581156,30.3443399,7.289,3.475,0.0,0.0,0.0,-4.6191552370724045,0.0,0.0,0.0,0.0,0.0,0.0,0.0,0.0,16,43,0,4,0.75,2024-07-19T11: 52: 20.700+03: 00,61766,new.004.003.
59.9581153,30.3443337,7.287,3.487,0.0,0.0,0.0,-4.627820796808557,0.0,0.0,0.0,0.0,0.0,0.0,0.0,0.0,16,43,0,4,0.77,2024-07-19T11: 52: 20.800+03: 00,61866,new.004.003.
59.9581151,30.3443274,7.283,3.527,0.0,0.0,0.0,-4.6489183368066636,0.0,0.0,0.0,0.0,0.0,0.0,0.0,0.0,16,43,0,4,0.81,2024-07-19T11: 52: 20.900+03: 00,61962,new.004.003.
59.958115,30.3443213,7.277,3.452,0.0,0.0,0.0,-4.657439034214901,0.0,0.0,0.0,0.0,0.0,0.0,0.0,0.0,17,43,0,4,0.81,2024-07-19T11: 52: 21.000+03: 00,62072,new.004.003.
59.9581149,30.3443151,7.282,3.438,0.0,0.0,0.0,-4.67636014863577,0.0,0.0,0.0,0.0,0.0,0.0,0.0,0.0,17,43,0,4,0.8,2024-07-19T11: 52: 21.100+03: 00,62169,new.004.003.
59.9581148,30.344309,7.275,3.423,0.0,0.0,0.0,-4.672934067314106,0.0,0.0,0.0,0.0,0.0,0.0,0.0,0.0,17,43,0,4,0.8,2024-07-19T11: 52: 21.200+03: 00,62267,new.004.003.
59.9581147,30.3443027,7.278,3.474,0.0,0.0,0.0,-4.688640285252803,0.0,0.0,0.0,0.0,0.0,0.0,0.0,0.0,16,43,0,4,0.8,2024-07-19T11: 52: 21.300+03: 00,62369,new.004.003.
59.9581147,30.3442965,7.292,3.472,0.0,0.0,0.0,-4.700766832895659,0.0,0.0,0.0,0.0,0.0,0.0,0.0,0.0,16,43,0,4,0.87,2024-07-19T11: 52: 21.400+03: 00,62473,new.004.003.
59.9581146,30.3442904,7.294,3.41,0.0,0.0,0.0,-4.688169046354765,0.0,0.0,0.0,0.0,0.0,0.0,0.0,0.0,16,43,0,4,0.87,2024-07-19T11: 52: 21.500+03: 00,62566,new.004.003.
59.9581147,30.3442841,7.282,3.465,0.0,0.0,0.0,-4.725545272286223,0.0,0.0,0.0,0.0,0.0,0.0,0.0,0.0,17,43,0,4,0.87,2024-07-19T11: 52: 21.600+03: 00,62667,new.004.003.
59.9581146,30.344278,7.288,3.41,0.0,0.0,0.0,-4.6994962332002075,0.0,0.0,0.0,0.0,0.0,0.0,0.0,0.0,17,43,0,4,0.77,2024-07-19T11: 52: 21.700+03: 00,62766,new.004.003.
59.9581147,30.344272,7.27,3.389,0.0,0.0,0.0,-4.7244404788697105,0.0,0.0,0.0,0.0,0.0,0.0,0.0,0.0,16,43,0,4,0.77,2024-07-19T11: 52: 21.800+03: 00,62863,new.004.003.
59.9581149,30.344266,7.276,3.371,0.0,0.0,0.0,-4.749583692073941,0.0,0.0,0.0,0.0,0.0,0.0,0.0,0.0,17,43,0,4,0.77,2024-07-19T11: 52: 21.900+03: 00,62966,new.004.003.
59.9581149,30.3442599,7.272,3.391,0.0,0.0,0.0,-4.740637134328218,0.0,0.0,0.0,0.0,0.0,0.0,0.0,0.0,16,43,0,4,0.73,2024-07-19T11: 52: 22.000+03: 00,63071,new.004.003.
59.9581149,30.3442538,7.279,3.408,0.0,0.0,0.0,-4.722291978560506,0.0,0.0,0.0,0.0,0.0,0.0,0.0,0.0,17,43,0,4,0.8,2024-07-19T11: 52: 22.100+03: 00,63170,new.004.003.
59.9581151,30.3442477,7.261,3.404,0.0,0.0,0.0,-4.749922285948828,0.0,0.0,0.0,0.0,0.0,0.0,0.0,0.0,16,43,0,4,0.77,2024-07-19T11: 52: 22.200+03: 00,63272,new.004.003.
59.9581152,30.3442418,7.255,3.344,0.0,0.0,0.0,-4.754660854867993,0.0,0.0,0.0,0.0,0.0,0.0,0.0,0.0,17,43,0,4,0.77,2024-07-19T11: 52: 22.300+03: 00,63368,new.004.003.
59.9581153,30.3442358,7.253,3.34,0.0,0.0,0.0,-4.750801931891832,0.0,0.0,0.0,0.0,0.0,0.0,0.0,0.0,17,43,0,4,0.77,2024-07-19T11: 52: 22.400+03: 00,63467,new.004.003.
59.9581155,30.3442296,7.258,3.441,0.0,0.0,0.0,-4.7755803712823965,0.0,0.0,0.0,0.0,0.0,0.0,0.0,0.0,16,43,0,4,0.77,2024-07-19T11: 52: 22.500+03: 00,63566,new.004.003.
59.9581158,30.3442237,7.249,3.338,0.0,0.0,0.0,-4.7891258716071246,0.0,0.0,0.0,0.0,0.0,0.0,0.0,0.0,16,43,0,4,0.84,2024-07-19T11: 52: 22.600+03: 00,63667,new.004.003.
59.9581159,30.3442179,7.25,3.303,0.0,0.0,0.0,-4.7640856328287615,0.0,0.0,0.0,0.0,0.0,0.0,0.0,0.0,16,43,0,4,0.84,2024-07-19T11: 52: 22.700+03: 00,63764,new.004.003.
59.9581158,30.344212,7.239,3.277,0.0,0.0,0.0,-4.72942862987191,0.0,0.0,0.0,0.0,0.0,0.0,0.0,0.0,16,43,0,4,0.84,2024-07-19T11: 52: 22.800+03: 00,63865,new.004.003.
59.958116,30.3442059,7.251,3.374,0.0,0.0,0.0,-4.742551760517656,0.0,0.0,0.0,0.0,0.0,0.0,0.0,0.0,15,43,0,4,0.84,2024-07-19T11: 52: 22.900+03: 00,63967,new.004.003.
59.9581162,30.3441999,7.249,3.344,0.0,0.0,0.0,-4.774372603440017,0.0,0.0,0.0,0.0,0.0,0.0,0.0,0.0,15,43,0,4,0.79,2024-07-19T11: 52: 23.000+03: 00,64071,new.004.003.
59.9581163,30.344194,7.249,3.343,0.0,0.0,0.0,-4.756359060230182,0.0,0.0,0.0,0.0,0.0,0.0,0.0,0.0,15,43,0,4,0.79,2024-07-19T11: 52: 23.100+03: 00,64169,new.004.003.
59.9581164,30.3441881,7.237,3.299,0.0,0.0,0.0,-4.738298393130545,0.0,0.0,0.0,0.0,0.0,0.0,0.0,0.0,15,43,0,4,0.79,2024-07-19T11: 52: 23.200+03: 00,64290,new.004.003.
59.9581165,30.3441823,7.23,3.299,0.0,0.0,0.0,-4.7487040461309356,0.0,0.0,0.0,0.0,0.0,0.0,0.0,0.0,15,43,0,4,0.79,2024-07-19T11: 52: 23.300+03: 00,64369,new.004.003.
59.9581169,30.3441762,7.24,3.368,0.0,0.0,0.0,-4.784497258430836,0.0,0.0,0.0,0.0,0.0,0.0,0.0,0.0,15,43,0,4,0.79,2024-07-19T11: 52: 23.400+03: 00,64471,new.004.003.
59.9581168,30.3441703,7.232,3.339,0.0,0.0,0.0,-4.7349333983327,0.0,0.0,0.0,0.0,0.0,0.0,0.0,0.0,15,43,0,4,0.87,2024-07-19T11: 52: 23.500+03: 00,64566,new.004.003.
59.958117,30.3441645,7.233,3.256,0.0,0.0,0.0,-4.742417370165252,0.0,0.0,0.0,0.0,0.0,0.0,0.0,0.0,14,43,0,4,0.87,2024-07-19T11: 52: 23.600+03: 00,64662,new.004.003.
59.9581171,30.3441585,7.23,3.331,0.0,0.0,0.0,-4.751002644755813,0.0,0.0,0.0,0.0,0.0,0.0,0.0,0.0,13,43,0,4,0.87,2024-07-19T11: 52: 23.700+03: 00,64765,new.004.003.
59.9581174,30.3441524,7.232,3.39,0.0,0.0,0.0,-4.774754830546203,0.0,0.0,0.0,0.0,0.0,0.0,0.0,0.0,13,43,0,4,0.88,2024-07-19T11: 52: 23.800+03: 00,64865,new.004.003.
59.9581175,30.3441464,7.225,3.375,0.0,0.0,0.0,-4.762637009549607,0.0,0.0,0.0,0.0,0.0,0.0,0.0,0.0,12,43,0,4,0.88,2024-07-19T11: 52: 23.900+03: 00,64964,new.004.003.
59.9581175,30.3441405,7.223,3.329,0.0,0.0,0.0,-4.744050998345118,0.0,0.0,0.0,0.0,0.0,0.0,0.0,0.0,12,43,0,4,0.95,2024-07-19T11: 52: 24.000+03: 00,65070,new.004.003.
59.9581176,30.3441343,7.227,3.422,0.0,0.0,0.0,-4.745948171242036,0.0,0.0,0.0,0.0,0.0,0.0,0.0,0.0,12,43,0,4,0.95,2024-07-19T11: 52: 24.100+03: 00,65170,new.004.003.
59.9581175,30.3441281,7.222,3.44,0.0,0.0,0.0,-4.718131113623751,0.0,0.0,0.0,0.0,0.0,0.0,0.0,0.0,11,43,0,4,0.95,2024-07-19T11: 52: 24.200+03: 00,65271,new.004.003.
59.9581176,30.3441217,7.219,3.523,0.0,0.0,0.0,-4.725679662638626,0.0,0.0,0.0,0.0,0.0,0.0,0.0,0.0,11,43,0,4,1.02,2024-07-19T11: 52: 24.300+03: 00,65366,new.004.003.
59.9581176,30.3441154,7.221,3.504,0.0,0.0,0.0,-4.721045813474581,0.0,0.0,0.0,0.0,0.0,0.0,0.0,0.0,10,43,0,4,1.02,2024-07-19T11: 52: 24.400+03: 00,65467,new.004.003.
59.9581178,30.344109,7.227,3.571,0.0,0.0,0.0,-4.742366755616944,0.0,0.0,0.0,0.0,0.0,0.0,0.0,0.0,11,43,0,4,1.11,2024-07-19T11: 52: 24.500+03: 00,65564,new.004.003.
59.9581178,30.3441026,7.224,3.562,0.0,0.0,0.0,-4.734783300017029,0.0,0.0,0.0,0.0,0.0,0.0,0.0,0.0,11,43,0,4,1.02,2024-07-19T11: 52: 24.600+03: 00,65666,new.004.003.
59.9581177,30.344096,7.215,3.631,0.0,0.0,0.0,-4.713975484674752,0.0,0.0,0.0,0.0,0.0,0.0,0.0,0.0,11,43,0,4,1.02,2024-07-19T11: 52: 24.700+03: 00,65766,new.004.003.
59.9581179,30.3440894,7.224,3.658,0.0,0.0,0.0,-4.741106627897004,0.0,0.0,0.0,0.0,0.0,0.0,0.0,0.0,10,43,0,4,1.02,2024-07-19T11: 52: 24.800+03: 00,65865,new.004.003.
59.9581179,30.3440826,7.225,3.735,0.0,0.0,0.0,-4.723543379634185,0.0,0.0,0.0,0.0,0.0,0.0,0.0,0.0,10,43,0,4,1.11,2024-07-19T11: 52: 24.900+03: 00,65965,new.004.003.
59.9581178,30.344076,7.22,3.729,0.0,0.0,0.0,-4.712347092482641,0.0,0.0,0.0,0.0,0.0,0.0,0.0,0.0,11,43,0,4,1.11,2024-07-19T11: 52: 25.000+03: 00,66072,new.004.003.
59.958118,30.3440692,7.222,3.743,0.0,0.0,0.0,-4.731767371069583,0.0,0.0,0.0,0.0,0.0,0.0,0.0,0.0,11,43,0,4,1.11,2024-07-19T11: 52: 25.100+03: 00,66166,new.004.003.
59.958118,30.3440624,7.227,3.813,0.0,0.0,0.0,-4.726170100158437,0.0,0.0,0.0,0.0,0.0,0.0,0.0,0.0,11,43,0,4,1.11,2024-07-19T11: 52: 25.200+03: 00,66264,new.004.003.
59.9581179,30.3440553,7.218,3.876,0.0,0.0,0.0,-4.710538931377576,0.0,0.0,0.0,0.0,0.0,0.0,0.0,0.0,11,43,0,4,1.11,2024-07-19T11: 52: 25.300+03: 00,66366,new.004.003.
59.9581179,30.3440485,7.225,3.859,0.0,0.0,0.0,-4.708025657254704,0.0,0.0,0.0,0.0,0.0,0.0,0.0,0.0,10,43,0,4,1.11,2024-07-19T11: 52: 25.400+03: 00,66466,new.004.003.
59.9581182,30.3440415,7.224,3.917,0.0,0.0,0.0,-4.751578603408971,0.0,0.0,0.0,0.0,0.0,0.0,0.0,0.0,10,43,0,4,1.22,2024-07-19T11: 52: 25.500+03: 00,66562,new.004.003.
59.9581182,30.3440343,7.22,3.95,0.0,0.0,0.0,-4.740256652551283,0.0,0.0,0.0,0.0,0.0,0.0,0.0,0.0,9,43,0,4,1.22,2024-07-19T11: 52: 25.600+03: 00,66665,new.004.003.
59.9581182,30.3440274,7.214,3.898,0.0,0.0,0.0,-4.724388118992151,0.0,0.0,0.0,0.0,0.0,0.0,0.0,0.0,10,43,0,4,1.22,2024-07-19T11: 52: 25.700+03: 00,66762,new.004.003.
59.9581182,30.3440198,7.206,4.103,0.0,0.0,0.0,-4.720166167531577,0.0,0.0,0.0,0.0,0.0,0.0,0.0,0.0,10,43,0,4,1.11,2024-07-19T11: 52: 25.800+03: 00,66874,new.004.003.
59.9581182,30.3440125,7.21,4.092,0.0,0.0,0.0,-4.723375828025994,0.0,0.0,0.0,0.0,0.0,0.0,0.0,0.0,10,43,0,4,1.11,2024-07-19T11: 52: 25.900+03: 00,66962,new.004.003.
59.9581182,30.344005,7.208,4.142,0.0,0.0,0.0,-4.718949673042936,0.0,0.0,0.0,0.0,0.0,0.0,0.0,0.0,9,43,0,4,1.11,2024-07-19T11: 52: 26.000+03: 00,67068,new.004.003.
59.9581183,30.3439975,7.204,4.182,0.0,0.0,0.0,-4.725941462026426,0.0,0.0,0.0,0.0,0.0,0.0,0.0,0.0,10,43,0,4,1.22,2024-07-19T11: 52: 26.100+03: 00,67165,new.004.003.
59.9581183,30.3439899,7.206,4.192,0.0,0.0,0.0,-4.7259065554413855,0.0,0.0,0.0,0.0,0.0,0.0,0.0,0.0,9,43,0,4,1.11,2024-07-19T11: 52: 26.200+03: 00,67264,new.004.003.
59.9581185,30.3439822,7.194,4.27,0.0,0.0,0.0,-4.735724032483853,0.0,0.0,0.0,0.0,0.0,0.0,0.0,0.0,10,43,0,4,1.11,2024-07-19T11: 52: 26.300+03: 00,67361,new.004.003.
59.9581185,30.3439743,7.203,4.359,0.0,0.0,0.0,-4.731891289446474,0.0,0.0,0.0,0.0,0.0,0.0,0.0,0.0,10,43,0,4,1.11,2024-07-19T11: 52: 26.400+03: 00,67468,new.004.003.
59.9581186,30.3439667,7.205,4.28,0.0,0.0,0.0,-4.728344780406422,0.0,0.0,0.0,0.0,0.0,0.0,0.0,0.0,10,43,0,4,1.11,2024-07-19T11: 52: 26.500+03: 00,67563,new.004.003.
59.9581186,30.3439591,7.189,4.269,0.0,0.0,0.0,-4.724391609650654,0.0,0.0,0.0,0.0,0.0,0.0,0.0,0.0,10,43,0,4,1.11,2024-07-19T11: 52: 26.600+03: 00,67662,new.004.003.
59.9581189,30.3439513,7.202,4.338,0.0,0.0,0.0,-4.7468016372462625,0.0,0.0,0.0,0.0,0.0,0.0,0.0,0.0,9,43,0,4,1.11,2024-07-19T11: 52: 26.700+03: 00,67763,new.004.003.
59.9581189,30.3439435,7.196,4.336,0.0,0.0,0.0,-4.737317518090924,0.0,0.0,0.0,0.0,0.0,0.0,0.0,0.0,9,43,0,4,1.19,2024-07-19T11: 52: 26.800+03: 00,67863,new.004.003.
59.9581188,30.3439358,7.184,4.323,0.0,0.0,0.0,-4.716130966300965,0.0,0.0,0.0,0.0,0.0,0.0,0.0,0.0,9,43,0,4,1.19,2024-07-19T11: 52: 26.900+03: 00,67962,new.004.003.
59.9581188,30.3439281,7.188,4.304,0.0,0.0,0.0,-4.715015700908942,0.0,0.0,0.0,0.0,0.0,0.0,0.0,0.0,9,43,0,4,1.19,2024-07-19T11: 52: 27.000+03: 00,68068,new.004.003.
59.9581189,30.3439202,7.202,4.376,0.0,0.0,0.0,-4.7312141016967,0.0,0.0,0.0,0.0,0.0,0.0,0.0,0.0,9,43,0,4,1.19,2024-07-19T11: 52: 27.100+03: 00,68164,new.004.003.
59.9581188,30.3439126,7.195,4.271,0.0,0.0,0.0,-4.71238025373843,0.0,0.0,0.0,0.0,0.0,0.0,0.0,0.0,9,43,0,4,1.19,2024-07-19T11: 52: 27.200+03: 00,68260,new.004.003.
59.9581187,30.3439047,7.172,4.352,0.0,0.0,0.0,-4.702807122791241,0.0,0.0,0.0,0.0,0.0,0.0,0.0,0.0,8,43,0,4,1.19,2024-07-19T11: 52: 27.300+03: 00,68365,new.004.003.
59.9581189,30.3438971,7.183,4.312,0.0,0.0,0.0,-4.7206129718200875,0.0,0.0,0.0,0.0,0.0,0.0,0.0,0.0,8,43,0,4,1.49,2024-07-19T11: 52: 27.400+03: 00,68472,new.004.003.
59.9581194,30.3438895,7.192,4.315,0.0,0.0,0.0,-4.762926734205438,0.0,0.0,0.0,0.0,0.0,0.0,0.0,0.0,8,43,0,4,1.49,2024-07-19T11: 52: 27.500+03: 00,68562,new.004.003.
59.9581194,30.3438818,7.2,4.289,0.0,0.0,0.0,-4.747213534949732,0.0,0.0,0.0,0.0,0.0,0.0,0.0,0.0,8,43,0,4,1.49,2024-07-19T11: 52: 27.600+03: 00,68662,new.004.003.
59.9581194,30.3438741,7.17,4.292,0.0,0.0,0.0,-4.734257955912178,0.0,0.0,0.0,0.0,0.0,0.0,0.0,0.0,8,43,0,4,1.49,2024-07-19T11: 52: 27.700+03: 00,68762,new.004.003.
59.9581193,30.3438663,7.173,4.323,0.0,0.0,0.0,-4.716420690956796,0.0,0.0,0.0,0.0,0.0,0.0,0.0,0.0,8,43,0,4,1.49,2024-07-19T11: 52: 27.800+03: 00,68861,new.004.003.
59.9581195,30.3438586,7.174,4.326,0.0,0.0,0.0,-4.732074549017934,0.0,0.0,0.0,0.0,0.0,0.0,0.0,0.0,8,43,0,4,1.49,2024-07-19T11: 52: 27.900+03: 00,68961,new.004.003.
59.9581195,30.3438509,7.173,4.286,0.0,0.0,0.0,-4.726894411798015,0.0,0.0,0.0,0.0,0.0,0.0,0.0,0.0,8,43,0,4,1.49,2024-07-19T11: 52: 28.000+03: 00,69068,new.004.003.
59.9581196,30.3438432,7.175,4.295,0.0,0.0,0.0,-4.726112504293121,0.0,0.0,0.0,0.0,0.0,0.0,0.0,0.0,8,43,0,4,1.49,2024-07-19T11: 52: 28.100+03: 00,69163,new.004.004.
59.9581197,30.3438355,7.155,4.328,0.0,0.0,0.0,-4.735867149482517,0.0,0.0,0.0,0.0,0.0,0.0,0.0,0.0,7,43,0,4,1.49,2024-07-19T11: 52: 28.200+03: 00,69267,new.004.004.
59.9581197,30.3438278,7.173,4.288,0.0,0.0,0.0,-4.728171992810474,0.0,0.0,0.0,0.0,0.0,0.0,0.0,0.0,8,43,0,4,1.53,2024-07-19T11: 52: 28.300+03: 00,69370,new.004.004.
59.9581199,30.3438201,7.174,4.313,0.0,0.0,0.0,-4.741684331879414,0.0,0.0,0.0,0.0,0.0,0.0,0.0,0.0,8,43,0,4,1.46,2024-07-19T11: 52: 28.400+03: 00,69462,new.004.004.
59.9581199,30.3438124,7.176,4.29,0.0,0.0,0.0,-4.7260182565135125,0.0,0.0,0.0,0.0,0.0,0.0,0.0,0.0,8,43,0,4,1.46,2024-07-19T11: 52: 28.500+03: 00,69563,new.004.004.
59.95812,30.3438048,7.164,4.273,0.0,0.0,0.0,-4.731358964024617,0.0,0.0,0.0,0.0,0.0,0.0,0.0,0.0,8,43,0,4,1.46,2024-07-19T11: 52: 28.600+03: 00,69664,new.004.004.
59.9581201,30.343797,7.175,4.324,0.0,0.0,0.0,-4.7365356105860315,0.0,0.0,0.0,0.0,0.0,0.0,0.0,0.0,8,43,0,4,1.46,2024-07-19T11: 52: 28.700+03: 00,69762,new.004.004.
59.9581201,30.3437893,7.196,4.32,0.0,0.0,0.0,-4.727456407817157,0.0,0.0,0.0,0.0,0.0,0.0,0.0,0.0,8,43,0,4,1.46,2024-07-19T11: 52: 28.800+03: 00,69861,new.004.004.
59.9581201,30.3437815,7.188,4.329,0.0,0.0,0.0,-4.7274092839273525,0.0,0.0,0.0,0.0,0.0,0.0,0.0,0.0,8,43,0,4,1.46,2024-07-19T11: 52: 28.900+03: 00,69962,new.004.004.
59.9581202,30.3437739,7.179,4.288,0.0,0.0,0.0,-4.72951589633451,0.0,0.0,0.0,0.0,0.0,0.0,0.0,0.0,8,43,0,4,1.46,2024-07-19T11: 52: 29.000+03: 00,70064,new.004.004.
59.9581206,30.3437662,7.175,4.322,0.0,0.0,0.0,-4.7571863462956285,0.0,0.0,0.0,0.0,0.0,0.0,0.0,0.0,8,43,0,4,2.14,2024-07-19T11: 52: 29.100+03: 00,70163,new.004.004.
59.9581203,30.3437584,7.195,4.328,0.0,0.0,0.0,-4.724014618532223,0.0,0.0,0.0,0.0,0.0,0.0,0.0,0.0,8,43,0,4,2.14,2024-07-19T11: 52: 29.200+03: 00,70264,new.004.004.
59.9581204,30.3437506,7.198,4.336,0.0,0.0,0.0,-4.726838561261951,0.0,0.0,0.0,0.0,0.0,0.0,0.0,0.0,8,43,0,4,2.14,2024-07-19T11: 52: 29.300+03: 00,70364,new.004.004.
59.9581206,30.343743,7.193,4.299,0.0,0.0,0.0,-4.734645419006122,0.0,0.0,0.0,0.0,0.0,0.0,0.0,0.0,8,43,0,4,2.59,2024-07-19T11: 52: 29.400+03: 00,70466,new.004.004.
59.9581205,30.3437352,7.202,4.326,0.0,0.0,0.0,-4.723840085607025,0.0,0.0,0.0,0.0,0.0,0.0,0.0,0.0,8,43,0,4,2.59,2024-07-19T11: 52: 29.500+03: 00,70561,new.004.004.
59.9581209,30.3437275,7.185,4.32,0.0,0.0,0.0,-4.7466759735401185,0.0,0.0,0.0,0.0,0.0,0.0,0.0,0.0,8,43,0,4,2.59,2024-07-19T11: 52: 29.600+03: 00,70660,new.004.004.
59.9581206,30.3437198,7.184,4.297,0.0,0.0,0.0,-4.716347387128214,0.0,0.0,0.0,0.0,0.0,0.0,0.0,0.0,8,43,0,4,2.59,2024-07-19T11: 52: 29.700+03: 00,70760,new.004.004.
59.9581207,30.343712,7.203,4.342,0.0,0.0,0.0,-4.72011729831252,0.0,0.0,0.0,0.0,0.0,0.0,0.0,0.0,8,43,0,4,2.59,2024-07-19T11: 52: 29.800+03: 00,70860,new.004.004.
59.9581209,30.3437043,7.179,4.315,0.0,0.0,0.0,-4.732228137992109,0.0,0.0,0.0,0.0,0.0,0.0,0.0,0.0,8,43,0,4,2.14,2024-07-19T11: 52: 29.900+03: 00,70957,new.004.004.
59.9581207,30.3436966,7.184,4.305,0.0,0.0,0.0,-4.71607337043565,0.0,0.0,0.0,0.0,0.0,0.0,0.0,0.0,8,43,0,4,2.59,2024-07-19T11: 52: 30.000+03: 00,71065,new.004.004.
59.9581212,30.343689,7.193,4.305,0.0,0.0,0.0,-4.748311347049237,0.0,0.0,0.0,0.0,0.0,0.0,0.0,0.0,8,43,0,4,2.59,2024-07-19T11: 52: 30.100+03: 00,71165,new.004.004.
59.958121,30.3436812,7.187,4.328,0.0,0.0,0.0,-4.727105596637506,0.0,0.0,0.0,0.0,0.0,0.0,0.0,0.0,7,43,0,4,2.59,2024-07-19T11: 52: 30.200+03: 00,71266,new.004.004.
59.9581209,30.3436736,7.17,4.269,0.0,0.0,0.0,-4.7157801551213145,0.0,0.0,0.0,0.0,0.0,0.0,0.0,0.0,7,43,0,4,2.59,2024-07-19T11: 52: 30.300+03: 00,71361,new.004.004.
59.9581212,30.3436658,7.157,4.334,0.0,0.0,0.0,-4.733971721914852,0.0,0.0,0.0,0.0,0.0,0.0,0.0,0.0,7,43,0,4,2.91,2024-07-19T11: 52: 30.400+03: 00,71462,new.004.004.
59.9581212,30.343658,7.178,4.353,0.0,0.0,0.0,-4.7286013438064645,0.0,0.0,0.0,0.0,0.0,0.0,0.0,0.0,6,43,0,4,2.39,2024-07-19T11: 52: 30.500+03: 00,71560,new.004.004.
59.9581212,30.3436503,7.164,4.329,0.0,0.0,0.0,-4.725285218227676,0.0,0.0,0.0,0.0,0.0,0.0,0.0,0.0,6,43,0,4,2.39,2024-07-19T11: 52: 30.600+03: 00,71660,new.004.004.
59.9581216,30.3436427,7.184,4.303,0.0,0.0,0.0,-4.744400064195517,0.0,0.0,0.0,0.0,0.0,0.0,0.0,0.0,6,43,0,4,2.39,2024-07-19T11: 52: 30.700+03: 00,71761,new.004.004.
59.9581214,30.3436351,7.182,4.246,0.0,0.0,0.0,-4.721140061254189,0.0,0.0,0.0,0.0,0.0,0.0,0.0,0.0,10,43,0,4,2.91,2024-07-19T11: 52: 30.800+03: 00,71859,new.004.004.
59.9581215,30.3436272,7.172,4.342,0.0,0.0,0.0,-4.727833398935588,0.0,0.0,0.0,0.0,0.0,0.0,0.0,0.0,10,43,0,4,1.32,2024-07-19T11: 52: 30.900+03: 00,71960,new.004.004.
59.9581214,30.3436194,7.168,4.332,0.0,0.0,0.0,-4.716247903360848,0.0,0.0,0.0,0.0,0.0,0.0,0.0,0.0,10,43,0,4,1.32,2024-07-19T11: 52: 31.000+03: 00,72066,new.004.004.
59.9581215,30.3436116,7.183,4.379,0.0,0.0,0.0,-4.725119411948737,0.0,0.0,0.0,0.0,0.0,0.0,0.0,0.0,7,43,0,4,1.32,2024-07-19T11: 52: 31.100+03: 00,72162,new.004.004.
59.9581218,30.343604,7.186,4.302,0.0,0.0,0.0,-4.735039863417072,0.0,0.0,0.0,0.0,0.0,0.0,0.0,0.0,8,43,0,4,2.91,2024-07-19T11: 52: 31.200+03: 00,72262,new.004.004.
59.958122,30.343596,7.197,4.398,0.0,0.0,0.0,-4.745551981501834,0.0,0.0,0.0,0.0,0.0,0.0,0.0,0.0,8,43,0,4,1.71,2024-07-19T11: 52: 31.300+03: 00,72364,new.004.004.
59.9581221,30.3435881,7.201,4.419,0.0,0.0,0.0,-4.745321598040571,0.0,0.0,0.0,0.0,0.0,0.0,0.0,0.0,8,43,0,4,1.71,2024-07-19T11: 52: 31.400+03: 00,72466,new.004.004.
59.9581219,30.3435801,7.178,4.419,0.0,0.0,0.0,-4.727054982089198,0.0,0.0,0.0,0.0,0.0,0.0,0.0,0.0,9,43,0,4,1.71,2024-07-19T11: 52: 31.500+03: 00,72561,new.004.004.
59.958122,30.3435722,7.173,4.43,0.0,0.0,0.0,-4.724864593877945,0.0,0.0,0.0,0.0,0.0,0.0,0.0,0.0,9,43,0,4,1.6,2024-07-19T11: 52: 31.600+03: 00,72662,new.004.004.
59.9581222,30.3435639,7.169,4.548,0.0,0.0,0.0,-4.736530374598275,0.0,0.0,0.0,0.0,0.0,0.0,0.0,0.0,9,43,0,4,1.6,2024-07-19T11: 52: 31.700+03: 00,72758,new.004.004.
59.9581225,30.3435561,7.16,4.472,0.0,0.0,0.0,-4.7510724579258925,0.0,0.0,0.0,0.0,0.0,0.0,0.0,0.0,9,43,0,4,1.62,2024-07-19T11: 52: 31.800+03: 00,72860,new.004.004.
59.9581223,30.3435478,7.145,4.534,0.0,0.0,0.0,-4.727906702764171,0.0,0.0,0.0,0.0,0.0,0.0,0.0,0.0,9,43,0,4,1.62,2024-07-19T11: 52: 31.900+03: 00,72960,new.004.004.
59.9581226,30.3435392,7.164,4.697,0.0,0.0,0.0,-4.740319484404355,0.0,0.0,0.0,0.0,0.0,0.0,0.0,0.0,9,43,0,4,1.62,2024-07-19T11: 52: 32.000+03: 00,73066,new.004.004.
59.9581227,30.3435311,7.157,4.595,0.0,0.0,0.0,-4.738209381338693,0.0,0.0,0.0,0.0,0.0,0.0,0.0,0.0,9,43,0,4,1.62,2024-07-19T11: 52: 32.100+03: 00,73164,new.004.004.
59.9581228,30.3435227,7.16,4.662,0.0,0.0,0.0,-4.740844828509205,0.0,0.0,0.0,0.0,0.0,0.0,0.0,0.0,8,43,0,4,1.62,2024-07-19T11: 52: 32.200+03: 00,73268,new.004.004.
59.958123,30.3435141,7.159,4.767,0.0,0.0,0.0,-4.748801784569047,0.0,0.0,0.0,0.0,0.0,0.0,0.0,0.0,9,43,0,4,1.77,2024-07-19T11: 52: 32.300+03: 00,73362,new.004.004.
59.9581232,30.3435056,7.194,4.754,0.0,0.0,0.0,-4.747560855470879,0.0,0.0,0.0,0.0,0.0,0.0,0.0,0.0,9,43,0,4,1.62,2024-07-19T11: 52: 32.400+03: 00,73468,new.004.004.
59.9581231,30.3434969,7.164,4.811,0.0,0.0,0.0,-4.735237085622547,0.0,0.0,0.0,0.0,0.0,0.0,0.0,0.0,9,43,0,4,1.62,2024-07-19T11: 52: 32.500+03: 00,73560,new.004.004.
59.958123,30.3434883,7.169,4.803,0.0,0.0,0.0,-4.724398590967663,0.0,0.0,0.0,0.0,0.0,0.0,0.0,0.0,7,43,0,4,1.62,2024-07-19T11: 52: 32.600+03: 00,73658,new.004.004.
59.9581231,30.3434793,7.156,4.904,0.0,0.0,0.0,-4.729854490209396,0.0,0.0,0.0,0.0,0.0,0.0,0.0,0.0,9,43,0,4,1.74,2024-07-19T11: 52: 32.700+03: 00,73760,new.004.004.
59.9581231,30.3434705,7.131,4.901,0.0,0.0,0.0,-4.7231157739674465,0.0,0.0,0.0,0.0,0.0,0.0,0.0,0.0,9,43,0,4,1.62,2024-07-19T11: 52: 32.800+03: 00,73860,new.004.004.
59.9581232,30.3434615,7.172,4.996,0.0,0.0,0.0,-4.722675950995944,0.0,0.0,0.0,0.0,0.0,0.0,0.0,0.0,9,43,0,4,1.62,2024-07-19T11: 52: 32.900+03: 00,73959,new.004.004.
59.9581232,30.3434524,7.147,5.039,0.0,0.0,0.0,-4.724882047170465,0.0,0.0,0.0,0.0,0.0,0.0,0.0,0.0,9,43,0,4,1.62,2024-07-19T11: 52: 33.000+03: 00,74073,new.004.004.
59.9581233,30.3434431,7.128,5.113,0.0,0.0,0.0,-4.725862922210085,0.0,0.0,0.0,0.0,0.0,0.0,0.0,0.0,8,43,0,4,1.62,2024-07-19T11: 52: 33.100+03: 00,74162,new.004.004.
59.9581232,30.3434338,7.132,5.155,0.0,0.0,0.0,-4.716900656501096,0.0,0.0,0.0,0.0,0.0,0.0,0.0,0.0,8,43,0,4,2.59,2024-07-19T11: 52: 33.200+03: 00,74260,new.004.004.
59.9581234,30.3434244,7.119,5.219,0.0,0.0,0.0,-4.727243477648413,0.0,0.0,0.0,0.0,0.0,0.0,0.0,0.0,8,43,0,4,2.59,2024-07-19T11: 52: 33.300+03: 00,74362,new.004.004.
59.9581235,30.3434148,7.12,5.302,0.0,0.0,0.0,-4.7297637330882925,0.0,0.0,0.0,0.0,0.0,0.0,0.0,0.0,8,43,0,4,2.59,2024-07-19T11: 52: 33.400+03: 00,74466,new.004.004.
59.9581231,30.343405,7.087,5.386,0.0,0.0,0.0,-4.700677821103808,0.0,0.0,0.0,0.0,0.0,0.0,0.0,0.0,8,43,0,4,2.59,2024-07-19T11: 52: 33.500+03: 00,74558,new.004.004.
59.9581232,30.3433952,7.109,5.441,0.0,0.0,0.0,-4.7112946589436895,0.0,0.0,0.0,0.0,0.0,0.0,0.0,0.0,8,43,0,4,1.45,2024-07-19T11: 52: 33.600+03: 00,74660,new.004.004.
59.9581235,30.3433852,7.096,5.52,0.0,0.0,0.0,-4.727470370451172,0.0,0.0,0.0,0.0,0.0,0.0,0.0,0.0,8,43,0,4,1.45,2024-07-19T11: 52: 33.700+03: 00,74760,new.004.004.
59.9581237,30.3433752,7.084,5.571,0.0,0.0,0.0,-4.733676761271265,0.0,0.0,0.0,0.0,0.0,0.0,0.0,0.0,8,43,0,4,1.45,2024-07-19T11: 52: 33.800+03: 00,74859,new.004.004.
59.9581237,30.3433651,7.091,5.636,0.0,0.0,0.0,-4.7262102427312325,0.0,0.0,0.0,0.0,0.0,0.0,0.0,0.0,8,43,0,4,1.45,2024-07-19T11: 52: 33.900+03: 00,74958,new.004.004.
59.9581239,30.3433548,7.117,5.686,0.0,0.0,0.0,-4.733802424977408,0.0,0.0,0.0,0.0,0.0,0.0,0.0,0.0,8,43,0,4,1.45,2024-07-19T11: 52: 34.000+03: 00,75066,new.004.004.
59.9581241,30.3433444,7.08,5.78,0.0,0.0,0.0,-4.737094115946669,0.0,0.0,0.0,0.0,0.0,0.0,0.0,0.0,8,43,0,4,1.45,2024-07-19T11: 52: 34.100+03: 00,75162,new.004.004.
59.9581242,30.3433337,7.08,5.873,0.0,0.0,0.0,-4.736193526052641,0.0,0.0,0.0,0.0,0.0,0.0,0.0,0.0,8,43,0,4,1.45,2024-07-19T11: 52: 34.200+03: 00,75267,new.004.004.
